{
"type": "FeatureCollection",
"name": "Drive-up_Wifi_Sites",
"crs": { "type": "name", "properties": { "name": "urn:ogc:def:crs:OGC:1.3:CRS84" } },
"features": [
{ "type": "Feature", "properties": { "OBJECTID": 1, "X": -124.05081, "Y": 46.491517, "USER_Site": "Adelaides Coffee", "USER_Street": "1401 Bay Ave", "USER_City": "Ocean Park", "USER_State": "WA", "USER_Zip": 98640, "USER_Hours": null, "USER_Password_Req__Y_N_": null, "USER_Partner": "Adelaides Coffee", "USER_Field9": null }, "geometry": { "type": "Point", "coordinates": [ -124.05081, 46.491517 ] } },
{ "type": "Feature", "properties": { "OBJECTID": 2, "X": -124.059221, "Y": 46.345962, "USER_Site": "Adrift Hotel", "USER_Street": "409 Sid Snyder Dr", "USER_City": "Long Beach", "USER_State": "WA", "USER_Zip": 98631, "USER_Hours": null, "USER_Password_Req__Y_N_": null, "USER_Partner": "Adrift Hotel", "USER_Field9": null }, "geometry": { "type": "Point", "coordinates": [ -124.059221, 46.345962 ] } },
{ "type": "Feature", "properties": { "OBJECTID": 3, "X": -122.616471, "Y": 48.514287, "USER_Site": "ANACORTES PUBLIC LIBRARY", "USER_Street": "1220 10TH ST", "USER_City": "ANACORTES", "USER_State": "WA", "USER_Zip": 98221, "USER_Hours": "7:00am - 10:00pm", "USER_Password_Req__Y_N_": "No", "USER_Partner": "ANACORTES PUBLIC LIBRARY", "USER_Field9": null }, "geometry": { "type": "Point", "coordinates": [ -122.616471, 48.514287000000103 ] } },
{ "type": "Feature", "properties": { "OBJECTID": 4, "X": -117.043851, "Y": 46.412652, "USER_Site": "DOWNTOWN BRANCH LIBRARY", "USER_Street": "417 SYCAMORE ST.", "USER_City": "CLARKSTON", "USER_State": "WA", "USER_Zip": 99403, "USER_Hours": "24x7", "USER_Password_Req__Y_N_": "No", "USER_Partner": "ASOTIN COUNTY LIBRARY", "USER_Field9": null }, "geometry": { "type": "Point", "coordinates": [ -117.043851, 46.412652 ] } },
{ "type": "Feature", "properties": { "OBJECTID": 5, "X": -117.071338, "Y": 46.912255, "USER_Site": "Palouse HS", "USER_Street": "600 E Alder St.", "USER_City": "Palouse", "USER_State": "WA", "USER_Zip": 99161, "USER_Hours": null, "USER_Password_Req__Y_N_": null, "USER_Partner": "Avista Foundation", "USER_Field9": null }, "geometry": { "type": "Point", "coordinates": [ -117.071338, 46.912255000000101 ] } },
{ "type": "Feature", "properties": { "OBJECTID": 6, "X": -118.36785, "Y": 47.125542, "USER_Site": "Ritzville School District", "USER_Street": "209 East Wellsandt Road", "USER_City": "Ritzville ", "USER_State": "WA", "USER_Zip": 99169, "USER_Hours": null, "USER_Password_Req__Y_N_": null, "USER_Partner": "Avista Foundation", "USER_Field9": null }, "geometry": { "type": "Point", "coordinates": [ -118.36785, 47.125542000000102 ] } },
{ "type": "Feature", "properties": { "OBJECTID": 7, "X": -122.478851, "Y": 48.753916, "USER_Site": "BELLINGHAM PUBLIC (CENTRAL) LIBRARY", "USER_Street": "210 CENTRAL AVE", "USER_City": "BELLINGHAM", "USER_State": "WA", "USER_Zip": 98225, "USER_Hours": "24x7", "USER_Password_Req__Y_N_": "No (Try the street parking on Central Ave. [south side of the library], Grand Ave. [west side of the library] and Lottie St. [north side of the library])", "USER_Partner": "BELLINGHAM PUBLIC LIBRARY", "USER_Field9": null }, "geometry": { "type": "Point", "coordinates": [ -122.478851, 48.753916000000103 ] } },
{ "type": "Feature", "properties": { "OBJECTID": 8, "X": -122.502179, "Y": 48.721499, "USER_Site": "FAIRHAVEN BRANCH LIBRARY", "USER_Street": "1117 12TH STREET", "USER_City": "BELLINGHAM", "USER_State": "WA", "USER_Zip": 98225, "USER_Hours": "24x7", "USER_Password_Req__Y_N_": "No (parking lot has coverage)", "USER_Partner": "BELLINGHAM PUBLIC LIBRARY", "USER_Field9": null }, "geometry": { "type": "Point", "coordinates": [ -122.502179, 48.721499000000101 ] } },
{ "type": "Feature", "properties": { "OBJECTID": 9, "X": -119.122861, "Y": 46.209115, "USER_Site": "Downtown", "USER_Street": "10 N Dayton St", "USER_City": "Kennewick", "USER_State": "WA", "USER_Zip": 99336, "USER_Hours": null, "USER_Password_Req__Y_N_": null, "USER_Partner": "Benton PUD", "USER_Field9": null }, "geometry": { "type": "Point", "coordinates": [ -119.122861, 46.209115 ] } },
{ "type": "Feature", "properties": { "OBJECTID": 10, "X": -119.11692, "Y": 46.210869, "USER_Site": "Downtown", "USER_Street": "200 N Washington St", "USER_City": "Kennewick", "USER_State": "WA", "USER_Zip": 99336, "USER_Hours": null, "USER_Password_Req__Y_N_": null, "USER_Partner": "Benton PUD", "USER_Field9": null }, "geometry": { "type": "Point", "coordinates": [ -119.11692, 46.210869000000102 ] } },
{ "type": "Feature", "properties": { "OBJECTID": 11, "X": -119.166481, "Y": 46.212292, "USER_Site": "Downtown", "USER_Street": "3311 W Clearwater Ave", "USER_City": "Kennewick", "USER_State": "WA", "USER_Zip": 99336, "USER_Hours": null, "USER_Password_Req__Y_N_": null, "USER_Partner": "Benton PUD", "USER_Field9": null }, "geometry": { "type": "Point", "coordinates": [ -119.166481, 46.212292 ] } },
{ "type": "Feature", "properties": { "OBJECTID": 12, "X": -119.222011, "Y": 46.204348, "USER_Site": "Downtown", "USER_Street": "603 S Columbia Center Blvd ", "USER_City": "Kennewick", "USER_State": "WA", "USER_Zip": 99336, "USER_Hours": null, "USER_Password_Req__Y_N_": null, "USER_Partner": "Benton PUD", "USER_Field9": null }, "geometry": { "type": "Point", "coordinates": [ -119.222011, 46.204348 ] } },
{ "type": "Feature", "properties": { "OBJECTID": 13, "X": -119.222374, "Y": 46.210037, "USER_Site": "Downtown", "USER_Street": "7504 W Clearwater Ave", "USER_City": "Kennewick", "USER_State": "WA", "USER_Zip": 99336, "USER_Hours": null, "USER_Password_Req__Y_N_": null, "USER_Partner": "Benton PUD", "USER_Field9": null }, "geometry": { "type": "Point", "coordinates": [ -119.222374, 46.210037 ] } },
{ "type": "Feature", "properties": { "OBJECTID": 14, "X": -122.323891, "Y": 48.474702, "USER_Site": "BURLINGTON PUBLIC LIBRARY", "USER_Street": "820 EAST WASHINGTON AVENUE", "USER_City": "BURLINGTON", "USER_State": "WA", "USER_Zip": 98233, "USER_Hours": "24x7", "USER_Password_Req__Y_N_": "No", "USER_Partner": "BURLINGTON PUBLIC LIBRARY", "USER_Field9": null }, "geometry": { "type": "Point", "coordinates": [ -122.323891, 48.474702 ] } },
{ "type": "Feature", "properties": { "OBJECTID": 15, "X": -122.402124, "Y": 45.586905, "USER_Site": "CAMAS PUBLIC LIBRARY", "USER_Street": "625 NE 4TH AVENUE", "USER_City": "CAMAS", "USER_State": "WA", "USER_Zip": 98607, "USER_Hours": "24x7", "USER_Password_Req__Y_N_": "No", "USER_Partner": "CAMAS PUBLIC LIBRARY", "USER_Field9": null }, "geometry": { "type": "Point", "coordinates": [ -122.402124, 45.586905000000101 ] } },
{ "type": "Feature", "properties": { "OBJECTID": 16, "X": -122.909766, "Y": 46.275302, "USER_Site": "CASTLE ROCK PUBLIC LIBRARY", "USER_Street": "137 COWLITZ ST W.", "USER_City": "CASTLE ROCK", "USER_State": "WA", "USER_Zip": 98611, "USER_Hours": null, "USER_Password_Req__Y_N_": "Yes", "USER_Partner": "CASTLE ROCK PUBLIC LIBRARY", "USER_Field9": null }, "geometry": { "type": "Point", "coordinates": [ -122.909766, 46.275302000000103 ] } },
{ "type": "Feature", "properties": { "OBJECTID": 17, "X": -123.383972, "Y": 46.200919, "USER_Site": "CATHLAMET PUBLIC LIBRARY", "USER_Street": "115 COLUMBIA ST", "USER_City": "CATHLAMET", "USER_State": "WA", "USER_Zip": 98612, "USER_Hours": "24x7", "USER_Password_Req__Y_N_": "Yes", "USER_Partner": "CATHLAMET PUBLIC LIBRARY", "USER_Field9": null }, "geometry": { "type": "Point", "coordinates": [ -123.383972, 46.200919 ] } },
{ "type": "Feature", "properties": { "OBJECTID": 18, "X": -122.238642, "Y": 48.504681, "USER_Site": "LIBRARY ADMINISTRATION", "USER_Street": "720 METCALF STREET", "USER_City": "SEDRO WOOLLEY", "USER_State": "WA", "USER_Zip": 98284, "USER_Hours": "24x7", "USER_Password_Req__Y_N_": "No", "USER_Partner": "CENTRAL SKAGIT LIBRARY DISTRICT", "USER_Field9": null }, "geometry": { "type": "Point", "coordinates": [ -122.238642, 48.504681 ] } },
{ "type": "Feature", "properties": { "OBJECTID": 19, "X": -122.228669, "Y": 48.50429, "USER_Site": "SEDRO-WOOLLEY PUBLIC LIBRARY", "USER_Street": "802 BALL AVENUE", "USER_City": "SEDRO-WOOLLEY", "USER_State": "WA", "USER_Zip": 98284, "USER_Hours": "24x7", "USER_Password_Req__Y_N_": "No", "USER_Partner": "CENTRAL SKAGIT LIBRARY DISTRICT", "USER_Field9": null }, "geometry": { "type": "Point", "coordinates": [ -122.228669, 48.50429 ] } },
{ "type": "Feature", "properties": { "OBJECTID": 20, "X": -120.539682, "Y": 47.008224, "USER_Site": "Central Washington University\/Tomlinson Stadium", "USER_Street": "1601 N Walnut St", "USER_City": "Ellensburg", "USER_State": "WA", "USER_Zip": 98926, "USER_Hours": null, "USER_Password_Req__Y_N_": "cwu-public", "USER_Partner": "Central Washington University", "USER_Field9": null }, "geometry": { "type": "Point", "coordinates": [ -120.539682, 47.008224 ] } },
{ "type": "Feature", "properties": { "OBJECTID": 21, "X": -120.925944, "Y": 47.193332, "USER_Site": "Upper Kittitas Court House", "USER_Street": "700 E 1st St", "USER_City": "Cle Elum", "USER_State": "WA", "USER_Zip": 98922, "USER_Hours": null, "USER_Password_Req__Y_N_": null, "USER_Partner": "Central Washington University and City of Ellensburg", "USER_Field9": null }, "geometry": { "type": "Point", "coordinates": [ -120.925944, 47.193332 ] } },
{ "type": "Feature", "properties": { "OBJECTID": 22, "X": -120.54553, "Y": 46.988125, "USER_Site": "Activity Center", "USER_Street": "506 S Pine St", "USER_City": "Ellensburg", "USER_State": "WA", "USER_Zip": 98926, "USER_Hours": null, "USER_Password_Req__Y_N_": null, "USER_Partner": "Central Washington University and City of Ellensburg", "USER_Field9": null }, "geometry": { "type": "Point", "coordinates": [ -120.54553, 46.988125 ] } },
{ "type": "Feature", "properties": { "OBJECTID": 23, "X": -120.541631, "Y": 46.99119, "USER_Site": "Bassett Youth Center", "USER_Street": "203 S Anderson St", "USER_City": "Ellensburg", "USER_State": "WA", "USER_Zip": 98926, "USER_Hours": null, "USER_Password_Req__Y_N_": null, "USER_Partner": "Central Washington University and City of Ellensburg", "USER_Field9": null }, "geometry": { "type": "Point", "coordinates": [ -120.541631, 46.991190000000103 ] } },
{ "type": "Feature", "properties": { "OBJECTID": 24, "X": -120.543074, "Y": 46.999736, "USER_Site": "Central Washington University and City of Ellensburg", "USER_Street": "400 E University Way", "USER_City": "Ellensburg", "USER_State": "WA", "USER_Zip": 98926, "USER_Hours": null, "USER_Password_Req__Y_N_": null, "USER_Partner": "Central Washington University and City of Ellensburg", "USER_Field9": null }, "geometry": { "type": "Point", "coordinates": [ -120.543074, 46.999736 ] } },
{ "type": "Feature", "properties": { "OBJECTID": 25, "X": -120.541924, "Y": 46.996758, "USER_Site": "City Hall", "USER_Street": "501 N Anderson St", "USER_City": "Ellensburg", "USER_State": "WA", "USER_Zip": 98926, "USER_Hours": null, "USER_Password_Req__Y_N_": null, "USER_Partner": "Central Washington University and City of Ellensburg", "USER_Field9": null }, "geometry": { "type": "Point", "coordinates": [ -120.541924, 46.996758 ] } },
{ "type": "Feature", "properties": { "OBJECTID": 26, "X": -120.549361, "Y": 46.996537, "USER_Site": "Court House", "USER_Street": "205 W 5th Ave", "USER_City": "Ellensburg", "USER_State": "WA", "USER_Zip": 98926, "USER_Hours": null, "USER_Password_Req__Y_N_": null, "USER_Partner": "Central Washington University and City of Ellensburg", "USER_Field9": null }, "geometry": { "type": "Point", "coordinates": [ -120.549361, 46.996537 ] } },
{ "type": "Feature", "properties": { "OBJECTID": 27, "X": -120.528593, "Y": 46.991787, "USER_Site": "Ellensburg High School", "USER_Street": "1203 E Capitol Ave", "USER_City": "Ellensburg", "USER_State": "WA", "USER_Zip": 98926, "USER_Hours": null, "USER_Password_Req__Y_N_": null, "USER_Partner": "Central Washington University and City of Ellensburg", "USER_Field9": null }, "geometry": { "type": "Point", "coordinates": [ -120.528593, 46.991787 ] } },
{ "type": "Feature", "properties": { "OBJECTID": 28, "X": -120.534781, "Y": 46.998917, "USER_Site": "Kittitas County Fairground", "USER_Street": "901 E 7th Ave", "USER_City": "Ellensburg", "USER_State": "WA", "USER_Zip": 98926, "USER_Hours": null, "USER_Password_Req__Y_N_": null, "USER_Partner": "Central Washington University and City of Ellensburg", "USER_Field9": null }, "geometry": { "type": "Point", "coordinates": [ -120.534781, 46.998917 ] } },
{ "type": "Feature", "properties": { "OBJECTID": 29, "X": -120.540216, "Y": 46.991399, "USER_Site": "Lincoln Elementary School", "USER_Street": "200 S Sampson St", "USER_City": "Ellensburg", "USER_State": "WA", "USER_Zip": 98926, "USER_Hours": null, "USER_Password_Req__Y_N_": null, "USER_Partner": "Central Washington University and City of Ellensburg", "USER_Field9": null }, "geometry": { "type": "Point", "coordinates": [ -120.540216, 46.991399000000101 ] } },
{ "type": "Feature", "properties": { "OBJECTID": 30, "X": -120.542867, "Y": 46.992434, "USER_Site": "Morgan Middle School", "USER_Street": "400 E 1st Ave", "USER_City": "Ellensburg", "USER_State": "WA", "USER_Zip": 98926, "USER_Hours": null, "USER_Password_Req__Y_N_": null, "USER_Partner": "Central Washington University and City of Ellensburg", "USER_Field9": null }, "geometry": { "type": "Point", "coordinates": [ -120.542867, 46.992434000000102 ] } },
{ "type": "Feature", "properties": { "OBJECTID": 31, "X": -120.558605, "Y": 47.00667, "USER_Site": "Mt. Stuart Elementary", "USER_Street": "705 W 15th Av", "USER_City": "Ellensburg", "USER_State": "WA", "USER_Zip": 98926, "USER_Hours": null, "USER_Password_Req__Y_N_": null, "USER_Partner": "Central Washington University and City of Ellensburg", "USER_Field9": null }, "geometry": { "type": "Point", "coordinates": [ -120.558605, 47.00667 ] } },
{ "type": "Feature", "properties": { "OBJECTID": 32, "X": -120.524803, "Y": 46.994926, "USER_Site": "Valley View Elementary School", "USER_Street": "1508 E 3rd Ave", "USER_City": "Ellensburg", "USER_State": "WA", "USER_Zip": 98926, "USER_Hours": null, "USER_Password_Req__Y_N_": null, "USER_Partner": "Central Washington University and City of Ellensburg", "USER_Field9": null }, "geometry": { "type": "Point", "coordinates": [ -120.524803, 46.994926 ] } },
{ "type": "Feature", "properties": { "OBJECTID": 33, "X": -120.994822, "Y": 47.222376, "USER_Site": "Inland Networks\/ US Post Office", "USER_Street": "201 W. Pennsylvania Ave", "USER_City": "Roslyn", "USER_State": "WA", "USER_Zip": 98941, "USER_Hours": null, "USER_Password_Req__Y_N_": null, "USER_Partner": "Central Washington University and City of Ellensburg", "USER_Field9": null }, "geometry": { "type": "Point", "coordinates": [ -120.994822, 47.222376 ] } },
{ "type": "Feature", "properties": { "OBJECTID": 34, "X": -123.132174, "Y": 48.077967, "USER_Site": "Walmart Parking Lot", "USER_Street": "1110 W Washington St", "USER_City": "Sequim", "USER_State": "WA", "USER_Zip": 98382, "USER_Hours": null, "USER_Password_Req__Y_N_": null, "USER_Partner": "City of Port Angeles\/OlyPen", "USER_Field9": null }, "geometry": { "type": "Point", "coordinates": [ -123.132174, 48.0779670000001 ] } },
{ "type": "Feature", "properties": { "OBJECTID": 35, "X": -124.3822993, "Y": 47.9533316, "USER_Site": "Calawah Tribe", "USER_Street": "513 Calawah Way", "USER_City": "Forks", "USER_State": "WA", "USER_Zip": 98331, "USER_Hours": null, "USER_Password_Req__Y_N_": null, "USER_Partner": "Clallam PUD", "USER_Field9": null }, "geometry": { "type": "Point", "coordinates": [ -124.3822993, 47.953331600000098 ] } },
{ "type": "Feature", "properties": { "OBJECTID": 36, "X": -124.38424, "Y": 47.949999, "USER_Site": "Forks - all of downtown", "USER_Street": "61 S Spartan Ave", "USER_City": "Forks", "USER_State": "WA", "USER_Zip": 98331, "USER_Hours": null, "USER_Password_Req__Y_N_": null, "USER_Partner": "Clallam PUD", "USER_Field9": null }, "geometry": { "type": "Point", "coordinates": [ -124.38424, 47.949999 ] } },
{ "type": "Feature", "properties": { "OBJECTID": 37, "X": -123.426891, "Y": 48.116292, "USER_Site": "Port Angeles - all of downtown", "USER_Street": "424 E 1st St", "USER_City": "Port Angeles", "USER_State": "WA", "USER_Zip": 98362, "USER_Hours": null, "USER_Password_Req__Y_N_": null, "USER_Partner": "Clallam PUD", "USER_Field9": null }, "geometry": { "type": "Point", "coordinates": [ -123.426891, 48.116292 ] } },
{ "type": "Feature", "properties": { "OBJECTID": 38, "X": -123.086028, "Y": 48.079716, "USER_Site": "Guy Cole - Convention Center", "USER_Street": "144 N. Blake Ave.", "USER_City": "Sequim", "USER_State": "WA", "USER_Zip": 98382, "USER_Hours": null, "USER_Password_Req__Y_N_": null, "USER_Partner": "Clallam PUD", "USER_Field9": null }, "geometry": { "type": "Point", "coordinates": [ -123.086028, 48.079716 ] } },
{ "type": "Feature", "properties": { "OBJECTID": 39, "X": -123.117195, "Y": 48.0797, "USER_Site": "JC Penney Parking Lot", "USER_Street": "651 W Washington", "USER_City": "Sequim", "USER_State": "WA", "USER_Zip": 98382, "USER_Hours": null, "USER_Password_Req__Y_N_": null, "USER_Partner": "Clallam PUD", "USER_Field9": null }, "geometry": { "type": "Point", "coordinates": [ -123.117195, 48.079700000000102 ] } },
{ "type": "Feature", "properties": { "OBJECTID": 40, "X": -120.938115, "Y": 47.195937, "USER_Site": "CLE ELUM (CARPENTER MEMORIAL) LIBRARY", "USER_Street": "302 PENNSYLVANIA AVE.", "USER_City": "CLE ELUM", "USER_State": "WA", "USER_Zip": 98922, "USER_Hours": "Mon-Sat 9:00am - 6:00pm", "USER_Password_Req__Y_N_": "No", "USER_Partner": "CLE ELUM (CARPENTER MEMORIAL) LIBRARY", "USER_Field9": null }, "geometry": { "type": "Point", "coordinates": [ -120.938115, 47.1959370000001 ] } },
{ "type": "Feature", "properties": { "OBJECTID": 41, "X": -117.977514, "Y": 46.320915, "USER_Site": "DAYTON MEMORIAL LIBRARY", "USER_Street": "111 S 3RD ST.", "USER_City": "DAYTON", "USER_State": "WA", "USER_Zip": 99328, "USER_Hours": "24x7", "USER_Password_Req__Y_N_": "No", "USER_Partner": "COLUMBIA COUNTY RURAL LIBRARY DISTRICT", "USER_Field9": null }, "geometry": { "type": "Point", "coordinates": [ -117.977514, 46.320915 ] } },
{ "type": "Feature", "properties": { "OBJECTID": 42, "X": -118.150999, "Y": 47.65393, "USER_Site": "DAVENPORT PUBLIC LIBRARY", "USER_Street": "505 7TH ST", "USER_City": "DAVENPORT", "USER_State": "WA", "USER_Zip": 99122, "USER_Hours": "24x7", "USER_Password_Req__Y_N_": "No", "USER_Partner": "DAVENPORT PUBLIC LIBRARY", "USER_Field9": null }, "geometry": { "type": "Point", "coordinates": [ -118.150999, 47.653930000000102 ] } },
{ "type": "Feature", "properties": { "OBJECTID": 43, "X": -118.381714, "Y": 47.126155, "USER_Site": "RITZVILLE PUBLIC LIBRARY", "USER_Street": "302 W MAIN", "USER_City": "RITZVILLE", "USER_State": "WA", "USER_Zip": 99169, "USER_Hours": "24x7", "USER_Password_Req__Y_N_": "No", "USER_Partner": "EAST ADAMS LIBRARY DISTRICT", "USER_Field9": null }, "geometry": { "type": "Point", "coordinates": [ -118.381714, 47.126155 ] } },
{ "type": "Feature", "properties": { "OBJECTID": 44, "X": -120.54451, "Y": 46.993988, "USER_Site": "ELLENSBURG PUBLIC LIBRARY", "USER_Street": "209 NORTH RUBY STREET", "USER_City": "ELLENSBURG", "USER_State": "WA", "USER_Zip": 98926, "USER_Hours": "9:00am - 7:00pm", "USER_Password_Req__Y_N_": "No", "USER_Partner": "ELLENSBURG PUBLIC LIBRARY", "USER_Field9": null }, "geometry": { "type": "Point", "coordinates": [ -120.54451, 46.993988000000101 ] } },
{ "type": "Feature", "properties": { "OBJECTID": 45, "X": -122.210012, "Y": 47.98168, "USER_Site": "EVERETT PUBLIC (MAIN) LIBRARY", "USER_Street": "2702 HOYT AVE", "USER_City": "EVERETT", "USER_State": "WA", "USER_Zip": 98201, "USER_Hours": "24x7", "USER_Password_Req__Y_N_": "No", "USER_Partner": "EVERETT PUBLIC LIBRARY", "USER_Field9": null }, "geometry": { "type": "Point", "coordinates": [ -122.210012, 47.98168 ] } },
{ "type": "Feature", "properties": { "OBJECTID": 46, "X": -122.237365, "Y": 47.911992, "USER_Site": "EVERGREEN BRANCH LIBRARY", "USER_Street": "9512 EVERGREEN WAY", "USER_City": "EVERETT", "USER_State": "WA", "USER_Zip": 98204, "USER_Hours": "24x7", "USER_Password_Req__Y_N_": "No", "USER_Partner": "EVERETT PUBLIC LIBRARY", "USER_Field9": null }, "geometry": { "type": "Point", "coordinates": [ -122.237365, 47.911992 ] } },
{ "type": "Feature", "properties": { "OBJECTID": 47, "X": -122.52401, "Y": 45.774782, "USER_Site": "BATTLE GROUND COMMUNITY LIBRARY", "USER_Street": "1207 SE 8TH WAY", "USER_City": "BATTLE GROUND", "USER_State": "WA", "USER_Zip": 98604, "USER_Hours": "24x7", "USER_Password_Req__Y_N_": "No", "USER_Partner": "FORT VANCOUVER REGIONAL LIBRARY DISTRICT", "USER_Field9": null }, "geometry": { "type": "Point", "coordinates": [ -122.52401, 45.774782000000101 ] } },
{ "type": "Feature", "properties": { "OBJECTID": 48, "X": -120.82421, "Y": 45.820037, "USER_Site": "GOLDENDALE COMMUNITY LIBRARY", "USER_Street": "131 WEST BURGEN STREET", "USER_City": "GOLDENDALE", "USER_State": "WA", "USER_Zip": 98620, "USER_Hours": "24x7", "USER_Password_Req__Y_N_": "No", "USER_Partner": "FORT VANCOUVER REGIONAL LIBRARY DISTRICT", "USER_Field9": null }, "geometry": { "type": "Point", "coordinates": [ -120.82421, 45.820037 ] } },
{ "type": "Feature", "properties": { "OBJECTID": 49, "X": -122.656426, "Y": 45.862272, "USER_Site": "LA CENTER COMMUNITY LIBRARY", "USER_Street": "1411 NE LOCKWOOD CREEK ROAD", "USER_City": "LA CENTER", "USER_State": "WA", "USER_Zip": 98629, "USER_Hours": "24x7", "USER_Password_Req__Y_N_": "No", "USER_Partner": "FORT VANCOUVER REGIONAL LIBRARY DISTRICT", "USER_Field9": null }, "geometry": { "type": "Point", "coordinates": [ -122.656426, 45.862272 ] } },
{ "type": "Feature", "properties": { "OBJECTID": 50, "X": -121.975815, "Y": 45.63802, "USER_Site": "NORTH BONNEVILLE COMMUNITY LIBRARY", "USER_Street": "214 CBD MALL", "USER_City": "NORTH BONNEVILLE", "USER_State": "WA", "USER_Zip": 98639, "USER_Hours": "24x7", "USER_Password_Req__Y_N_": "No", "USER_Partner": "FORT VANCOUVER REGIONAL LIBRARY DISTRICT", "USER_Field9": null }, "geometry": { "type": "Point", "coordinates": [ -121.975815, 45.63802 ] } },
{ "type": "Feature", "properties": { "OBJECTID": 51, "X": -122.746111, "Y": 45.816901, "USER_Site": "RIDGEFIELD COMMUNITY LIBRARY", "USER_Street": "210 NORTH MAIN AVENUE", "USER_City": "RIDGEFIELD", "USER_State": "WA", "USER_Zip": 98642, "USER_Hours": "24x7", "USER_Password_Req__Y_N_": "No", "USER_Partner": "FORT VANCOUVER REGIONAL LIBRARY DISTRICT", "USER_Field9": null }, "geometry": { "type": "Point", "coordinates": [ -122.746111, 45.816901 ] } },
{ "type": "Feature", "properties": { "OBJECTID": 52, "X": -121.88197, "Y": 45.695433, "USER_Site": "STEVENSON COMMUNITY LIBRARY", "USER_Street": "120 NW VANCOUVER AVENUE", "USER_City": "STEVENSON", "USER_State": "WA", "USER_Zip": 98648, "USER_Hours": "24x7", "USER_Password_Req__Y_N_": "No", "USER_Partner": "FORT VANCOUVER REGIONAL LIBRARY DISTRICT", "USER_Field9": null }, "geometry": { "type": "Point", "coordinates": [ -121.88197, 45.695433 ] } },
{ "type": "Feature", "properties": { "OBJECTID": 53, "X": -122.534698, "Y": 45.625074, "USER_Site": "CASCADE PARK COMMUNITY LIBRARY", "USER_Street": "600 NE 136TH AVENUE", "USER_City": "VANCOUVER", "USER_State": "WA", "USER_Zip": 98684, "USER_Hours": "24x7", "USER_Password_Req__Y_N_": "No", "USER_Partner": "FORT VANCOUVER REGIONAL LIBRARY DISTRICT", "USER_Field9": null }, "geometry": { "type": "Point", "coordinates": [ -122.534698, 45.625074 ] } },
{ "type": "Feature", "properties": { "OBJECTID": 54, "X": -122.660917, "Y": 45.630422, "USER_Site": "FVRL OPERATIONS CENTER", "USER_Street": "1007 E MILL PLAIN BLVD", "USER_City": "VANCOUVER", "USER_State": "WA", "USER_Zip": 98663, "USER_Hours": "24x7", "USER_Password_Req__Y_N_": "Yes", "USER_Partner": "FORT VANCOUVER REGIONAL LIBRARY DISTRICT", "USER_Field9": null }, "geometry": { "type": "Point", "coordinates": [ -122.660917, 45.630422000000102 ] } },
{ "type": "Feature", "properties": { "OBJECTID": 55, "X": -122.661637, "Y": 45.718764, "USER_Site": "THREE CREEKS COMMUNITY LIBRARY", "USER_Street": "800-C TENNEY ROAD", "USER_City": "VANCOUVER", "USER_State": "WA", "USER_Zip": 98685, "USER_Hours": "24x7", "USER_Password_Req__Y_N_": "No", "USER_Partner": "FORT VANCOUVER REGIONAL LIBRARY DISTRICT", "USER_Field9": null }, "geometry": { "type": "Point", "coordinates": [ -122.661637, 45.7187640000001 ] } },
{ "type": "Feature", "properties": { "OBJECTID": 56, "X": -122.669431, "Y": 45.628479, "USER_Site": "VANCOUVER COMMUNITY LIBRARY", "USER_Street": "901 C STREET", "USER_City": "VANCOUVER", "USER_State": "WA", "USER_Zip": 98660, "USER_Hours": "24x7", "USER_Password_Req__Y_N_": "No", "USER_Partner": "FORT VANCOUVER REGIONAL LIBRARY DISTRICT", "USER_Field9": null }, "geometry": { "type": "Point", "coordinates": [ -122.669431, 45.628479 ] } },
{ "type": "Feature", "properties": { "OBJECTID": 57, "X": -122.583165, "Y": 45.656216, "USER_Site": "VANCOUVER MALL COMMUNITY LIBRARY", "USER_Street": "8700 NE VANCOUVER MALL DRIVE", "USER_City": "VANCOUVER", "USER_State": "WA", "USER_Zip": 98662, "USER_Hours": "24x7", "USER_Password_Req__Y_N_": "No", "USER_Partner": "FORT VANCOUVER REGIONAL LIBRARY DISTRICT", "USER_Field9": null }, "geometry": { "type": "Point", "coordinates": [ -122.583165, 45.656216 ] } },
{ "type": "Feature", "properties": { "OBJECTID": 58, "X": -122.35407, "Y": 45.579257, "USER_Site": "WASHOUGAL COMMUNITY LIBRARY", "USER_Street": "1661 C STREET", "USER_City": "WASHOUGAL", "USER_State": "WA", "USER_Zip": 98671, "USER_Hours": "24x7", "USER_Password_Req__Y_N_": "No", "USER_Partner": "FORT VANCOUVER REGIONAL LIBRARY DISTRICT", "USER_Field9": null }, "geometry": { "type": "Point", "coordinates": [ -122.35407, 45.579257 ] } },
{ "type": "Feature", "properties": { "OBJECTID": 59, "X": -121.482852, "Y": 45.727859, "USER_Site": "WHITE SALMON VALLEY COMMUNITY LIBRARY", "USER_Street": "77 NE WAUNA AVENUE", "USER_City": "WHITE SALMON", "USER_State": "WA", "USER_Zip": 98672, "USER_Hours": "24x7", "USER_Password_Req__Y_N_": "No", "USER_Partner": "FORT VANCOUVER REGIONAL LIBRARY DISTRICT", "USER_Field9": null }, "geometry": { "type": "Point", "coordinates": [ -121.482852, 45.727859000000102 ] } },
{ "type": "Feature", "properties": { "OBJECTID": 60, "X": -122.747373, "Y": 45.90378, "USER_Site": "WOODLAND COMMUNITY LIBRARY", "USER_Street": "770 PARK STREET", "USER_City": "WOODLAND", "USER_State": "WA", "USER_Zip": 98674, "USER_Hours": "24x7", "USER_Password_Req__Y_N_": "No", "USER_Partner": "FORT VANCOUVER REGIONAL LIBRARY DISTRICT", "USER_Field9": null }, "geometry": { "type": "Point", "coordinates": [ -122.747373, 45.90378 ] } },
{ "type": "Feature", "properties": { "OBJECTID": 61, "X": -122.40632, "Y": 45.866752, "USER_Site": "YACOLT LIBRARY EXPRESS", "USER_Street": "105 E. YACOLT RD.", "USER_City": "YACOLT", "USER_State": "WA", "USER_Zip": 98675, "USER_Hours": "24x7", "USER_Password_Req__Y_N_": "No", "USER_Partner": "FORT VANCOUVER REGIONAL LIBRARY DISTRICT", "USER_Field9": null }, "geometry": { "type": "Point", "coordinates": [ -122.40632, 45.866752 ] } },
{ "type": "Feature", "properties": { "OBJECTID": 62, "X": -118.863089, "Y": 46.65603, "USER_Site": "Connell Community Center", "USER_Street": "211 E. Elm Street", "USER_City": "Connell", "USER_State": "WA", "USER_Zip": 99326, "USER_Hours": null, "USER_Password_Req__Y_N_": null, "USER_Partner": "Franklin PUD", "USER_Field9": null }, "geometry": { "type": "Point", "coordinates": [ -118.863089, 46.65603 ] } },
{ "type": "Feature", "properties": { "OBJECTID": 63, "X": -118.870482, "Y": 46.655329, "USER_Site": "Franklin PUD Connell Yard", "USER_Street": "619 Clark ", "USER_City": "Connell", "USER_State": "WA", "USER_Zip": 99326, "USER_Hours": null, "USER_Password_Req__Y_N_": null, "USER_Partner": "Franklin PUD", "USER_Field9": null }, "geometry": { "type": "Point", "coordinates": [ -118.870482, 46.655329000000101 ] } },
{ "type": "Feature", "properties": { "OBJECTID": 64, "X": -118.556265, "Y": 46.640929, "USER_Site": "Community Pool", "USER_Street": "Durham Ave & W Martin ST", "USER_City": "Kahlotus", "USER_State": "WA", "USER_Zip": 99335, "USER_Hours": null, "USER_Password_Req__Y_N_": null, "USER_Partner": "Franklin PUD", "USER_Field9": null }, "geometry": { "type": "Point", "coordinates": [ -118.556265, 46.640929 ] } },
{ "type": "Feature", "properties": { "OBJECTID": 65, "X": -118.556631, "Y": 46.641435, "USER_Site": "Kahlotus School District", "USER_Street": "100 W Martin St", "USER_City": "Kahlotus", "USER_State": "WA", "USER_Zip": 99335, "USER_Hours": null, "USER_Password_Req__Y_N_": null, "USER_Partner": "Franklin PUD", "USER_Field9": null }, "geometry": { "type": "Point", "coordinates": [ -118.556631, 46.641435000000101 ] } },
{ "type": "Feature", "properties": { "OBJECTID": 66, "X": -119.0074291, "Y": 46.5811197, "USER_Site": "Bailie Land and Cattle Company", "USER_Street": "205 1st Ave", "USER_City": "Mesa", "USER_State": "WA", "USER_Zip": 99343, "USER_Hours": null, "USER_Password_Req__Y_N_": null, "USER_Partner": "Franklin PUD", "USER_Field9": null }, "geometry": { "type": "Point", "coordinates": [ -119.0074291, 46.5811197 ] } },
{ "type": "Feature", "properties": { "OBJECTID": 67, "X": -119.0921356, "Y": 46.2297741, "USER_Site": "Pasco Farmers Market", "USER_Street": "101 South 4th Avenue ", "USER_City": "Pasco", "USER_State": "WA", "USER_Zip": 99301, "USER_Hours": null, "USER_Password_Req__Y_N_": null, "USER_Partner": "Franklin PUD", "USER_Field9": null }, "geometry": { "type": "Point", "coordinates": [ -119.0921356, 46.2297741 ] } },
{ "type": "Feature", "properties": { "OBJECTID": 68, "X": -119.107509, "Y": 46.230417, "USER_Site": "Pasco Memorial Park", "USER_Street": "350 N. 14th Ave.", "USER_City": "Pasco", "USER_State": "WA", "USER_Zip": 99301, "USER_Hours": null, "USER_Password_Req__Y_N_": null, "USER_Partner": "Franklin PUD", "USER_Field9": null }, "geometry": { "type": "Point", "coordinates": [ -119.107509, 46.230417 ] } },
{ "type": "Feature", "properties": { "OBJECTID": 69, "X": -119.247444, "Y": 46.262817, "USER_Site": "Columbia Point Marina", "USER_Street": "Columbia Point Dr (E entrance to boat ramp)", "USER_City": "Richland", "USER_State": "WA", "USER_Zip": null, "USER_Hours": "8AM to 8PM, 7 days a week", "USER_Password_Req__Y_N_": null, "USER_Partner": "Franklin PUD", "USER_Field9": null }, "geometry": { "type": "Point", "coordinates": [ -119.247444, 46.262817 ] } },
{ "type": "Feature", "properties": { "OBJECTID": 70, "X": -120.814215, "Y": 45.813617, "USER_Site": "Goldendale High School", "USER_Street": "525 E Simcoe Dr", "USER_City": "Goldendale", "USER_State": "WA", "USER_Zip": 98620, "USER_Hours": null, "USER_Password_Req__Y_N_": null, "USER_Partner": "Goldendale School District", "USER_Field9": null }, "geometry": { "type": "Point", "coordinates": [ -120.814215, 45.8136170000001 ] } },
{ "type": "Feature", "properties": { "OBJECTID": 71, "X": -120.815343, "Y": 45.819243, "USER_Site": "Goldendale Middle School", "USER_Street": "520 E Collins Dr", "USER_City": "Goldendale", "USER_State": "WA", "USER_Zip": 98620, "USER_Hours": null, "USER_Password_Req__Y_N_": null, "USER_Partner": "Goldendale School District", "USER_Field9": null }, "geometry": { "type": "Point", "coordinates": [ -120.815343, 45.819243 ] } },
{ "type": "Feature", "properties": { "OBJECTID": 72, "X": -120.817559, "Y": 45.816954, "USER_Site": "Goldendale Primary School", "USER_Street": "820 S Schuster Ave", "USER_City": "Goldendale", "USER_State": "WA", "USER_Zip": 98620, "USER_Hours": null, "USER_Password_Req__Y_N_": null, "USER_Partner": "Goldendale School District", "USER_Field9": null }, "geometry": { "type": "Point", "coordinates": [ -120.817559, 45.816954000000102 ] } },
{ "type": "Feature", "properties": { "OBJECTID": 73, "X": -119.907511, "Y": 46.256012, "USER_Site": "GRANDVIEW LIBRARY", "USER_Street": "500 W. MAIN STREET", "USER_City": "GRANDVIEW", "USER_State": "WA", "USER_Zip": 98930, "USER_Hours": "24x7", "USER_Password_Req__Y_N_": null, "USER_Partner": "GRANDVIEW LIBRARY", "USER_Field9": null }, "geometry": { "type": "Point", "coordinates": [ -119.907511, 46.256012 ] } },
{ "type": "Feature", "properties": { "OBJECTID": 74, "X": -119.554059, "Y": 47.313546, "USER_Site": "Ephrata Recycling Center", "USER_Street": "A St SE", "USER_City": "Ephrata", "USER_State": "WA", "USER_Zip": 98823, "USER_Hours": null, "USER_Password_Req__Y_N_": null, "USER_Partner": "Grant PUD", "USER_Field9": null }, "geometry": { "type": "Point", "coordinates": [ -119.554059, 47.313546 ] } },
{ "type": "Feature", "properties": { "OBJECTID": 75, "X": -119.842657, "Y": 47.237876, "USER_Site": "Quincy Middle School", "USER_Street": "16 6th Ave SE", "USER_City": "Quincy", "USER_State": "WA", "USER_Zip": 98848, "USER_Hours": null, "USER_Password_Req__Y_N_": null, "USER_Partner": "Grant PUD", "USER_Field9": null }, "geometry": { "type": "Point", "coordinates": [ -119.842657, 47.237876 ] } },
{ "type": "Feature", "properties": { "OBJECTID": 76, "X": -119.042154, "Y": 46.969913, "USER_Site": "Warden Community Center", "USER_Street": "114 N Oak Street", "USER_City": "Warden", "USER_State": "WA", "USER_Zip": 98857, "USER_Hours": null, "USER_Password_Req__Y_N_": null, "USER_Partner": "Grant PUD", "USER_Field9": null }, "geometry": { "type": "Point", "coordinates": [ -119.042154, 46.969913 ] } },
{ "type": "Feature", "properties": { "OBJECTID": 77, "X": -119.118604, "Y": 47.422073, "USER_Site": "Wilson Creek City Park", "USER_Street": "Railroad St", "USER_City": "Wilson Creek", "USER_State": "WA", "USER_Zip": 98860, "USER_Hours": null, "USER_Password_Req__Y_N_": null, "USER_Partner": "Grant PUD", "USER_Field9": null }, "geometry": { "type": "Point", "coordinates": [ -119.118604, 47.422073 ] } },
{ "type": "Feature", "properties": { "OBJECTID": 78, "X": -123.770613, "Y": 47.118092, "USER_Site": "Wishkah Valley School District", "USER_Street": "4640 Wishkah Rd", "USER_City": "Aberdeen", "USER_State": "WA", "USER_Zip": 98520, "USER_Hours": null, "USER_Password_Req__Y_N_": null, "USER_Partner": "Grays Harbor PUD", "USER_Field9": null }, "geometry": { "type": "Point", "coordinates": [ -123.770613, 47.118092 ] } },
{ "type": "Feature", "properties": { "OBJECTID": 79, "X": -120.935224, "Y": 47.194493, "USER_Site": "Inland Networks Office", "USER_Street": "218 E 1st St", "USER_City": "Cle Elum", "USER_State": "WA", "USER_Zip": 98922, "USER_Hours": null, "USER_Password_Req__Y_N_": "PW: CleElumUp!", "USER_Partner": "Inland Networks", "USER_Field9": null }, "geometry": { "type": "Point", "coordinates": [ -120.935224, 47.194493000000101 ] } },
{ "type": "Feature", "properties": { "OBJECTID": 80, "X": -120.993672, "Y": 47.2228, "USER_Site": "US Post Office", "USER_Street": "122 W Pennsylvania Ave", "USER_City": "Roslyn", "USER_State": "WA", "USER_Zip": 98941, "USER_Hours": null, "USER_Password_Req__Y_N_": "PW: RoslynUp!", "USER_Partner": "Inland Networks", "USER_Field9": null }, "geometry": { "type": "Point", "coordinates": [ -120.993672, 47.2228 ] } },
{ "type": "Feature", "properties": { "OBJECTID": 81, "X": -118.940761, "Y": 47.707399, "USER_Site": "Almira Schools", "USER_Street": "310 S 3rd Street", "USER_City": "Almira", "USER_State": "WA", "USER_Zip": 99103, "USER_Hours": null, "USER_Password_Req__Y_N_": null, "USER_Partner": "ITDRC\/NoaNet\/Washington State", "USER_Field9": null }, "geometry": { "type": "Point", "coordinates": [ -118.940761, 47.707399000000102 ] } },
{ "type": "Feature", "properties": { "OBJECTID": 82, "X": -122.659085, "Y": 48.726142, "USER_Site": "Lummi Nation School", "USER_Street": "2334 Lummi View Dr", "USER_City": "Bellingham", "USER_State": "WA", "USER_Zip": 98229, "USER_Hours": null, "USER_Password_Req__Y_N_": null, "USER_Partner": "ITDRC\/NoaNet\/Washington State", "USER_Field9": null }, "geometry": { "type": "Point", "coordinates": [ -122.659085, 48.726142 ] } },
{ "type": "Feature", "properties": { "OBJECTID": 83, "X": -119.92544, "Y": 46.825528, "USER_Site": "Volviendo A La Biblia Church", "USER_Street": "20446 A St SW", "USER_City": "Beverly", "USER_State": "WA", "USER_Zip": 99321, "USER_Hours": null, "USER_Password_Req__Y_N_": null, "USER_Partner": "ITDRC\/NoaNet\/Washington State", "USER_Field9": null }, "geometry": { "type": "Point", "coordinates": [ -119.92544, 46.825528 ] } },
{ "type": "Feature", "properties": { "OBJECTID": 84, "X": -119.787071, "Y": 48.093891, "USER_Site": "Brewster School District", "USER_Street": "503 S. 7th St.", "USER_City": "Brewster", "USER_State": "WA", "USER_Zip": 98812, "USER_Hours": null, "USER_Password_Req__Y_N_": null, "USER_Partner": "ITDRC\/NoaNet\/Washington State", "USER_Field9": null }, "geometry": { "type": "Point", "coordinates": [ -119.787071, 48.093891 ] } },
{ "type": "Feature", "properties": { "OBJECTID": 85, "X": -119.676113, "Y": 48.006567, "USER_Site": "Bridgeport High School", "USER_Street": "1220 Kryger St.", "USER_City": "Bridgeport ", "USER_State": "WA", "USER_Zip": 98813, "USER_Hours": null, "USER_Password_Req__Y_N_": null, "USER_Partner": "ITDRC\/NoaNet\/Washington State", "USER_Field9": null }, "geometry": { "type": "Point", "coordinates": [ -119.676113, 48.006567000000103 ] } },
{ "type": "Feature", "properties": { "OBJECTID": 86, "X": -120.899891, "Y": 45.752404, "USER_Site": "Centerville School District", "USER_Street": "2315 Centerville Hwy", "USER_City": "Centerville", "USER_State": "WA", "USER_Zip": 98613, "USER_Hours": null, "USER_Password_Req__Y_N_": null, "USER_Partner": "ITDRC\/NoaNet\/Washington State", "USER_Field9": null }, "geometry": { "type": "Point", "coordinates": [ -120.899891, 45.752404 ] } },
{ "type": "Feature", "properties": { "OBJECTID": 87, "X": -117.357692, "Y": 47.89228, "USER_Site": "Riverside Elementary", "USER_Street": "25717 N Yale Rd", "USER_City": "Chattaroy", "USER_State": "WA", "USER_Zip": 99003, "USER_Hours": null, "USER_Password_Req__Y_N_": null, "USER_Partner": "ITDRC\/NoaNet\/Washington State", "USER_Field9": null }, "geometry": { "type": "Point", "coordinates": [ -117.357692, 47.89228 ] } },
{ "type": "Feature", "properties": { "OBJECTID": 88, "X": -118.968777, "Y": 47.966332, "USER_Site": "Coulee Dam SD", "USER_Street": "505 Crest Drive", "USER_City": "Coulee Dam", "USER_State": "WA", "USER_Zip": 99116, "USER_Hours": null, "USER_Password_Req__Y_N_": null, "USER_Partner": "ITDRC\/NoaNet\/Washington State", "USER_Field9": null }, "geometry": { "type": "Point", "coordinates": [ -118.968777, 47.966332000000101 ] } },
{ "type": "Feature", "properties": { "OBJECTID": 89, "X": -117.975342, "Y": 46.316409, "USER_Site": "Dayton School District", "USER_Street": "609 S. 2nd St.", "USER_City": "Dayton", "USER_State": "WA", "USER_Zip": 99328, "USER_Hours": null, "USER_Password_Req__Y_N_": null, "USER_Partner": "ITDRC\/NoaNet\/Washington State", "USER_Field9": null }, "geometry": { "type": "Point", "coordinates": [ -117.975342, 46.3164090000001 ] } },
{ "type": "Feature", "properties": { "OBJECTID": 90, "X": -120.225317, "Y": 47.664364, "USER_Site": "Entiat Schools", "USER_Street": "2650 Entiat Way", "USER_City": "Entiat", "USER_State": "WA", "USER_Zip": 98822, "USER_Hours": null, "USER_Password_Req__Y_N_": null, "USER_Partner": "ITDRC\/NoaNet\/Washington State", "USER_Field9": null }, "geometry": { "type": "Point", "coordinates": [ -120.225317, 47.664364 ] } },
{ "type": "Feature", "properties": { "OBJECTID": 91, "X": -119.539871, "Y": 47.31741, "USER_Site": "Columbia Ridge Elementary", "USER_Street": "60 H St. SE", "USER_City": "Ephrata", "USER_State": "WA", "USER_Zip": 98823, "USER_Hours": null, "USER_Password_Req__Y_N_": null, "USER_Partner": "ITDRC\/NoaNet\/Washington State", "USER_Field9": null }, "geometry": { "type": "Point", "coordinates": [ -119.539871, 47.317410000000102 ] } },
{ "type": "Feature", "properties": { "OBJECTID": 92, "X": -119.553833, "Y": 47.313799, "USER_Site": "Ephrata (Bureau of Reclamation Office)", "USER_Street": "426 A St SE", "USER_City": "Ephrata", "USER_State": "WA", "USER_Zip": 98823, "USER_Hours": null, "USER_Password_Req__Y_N_": null, "USER_Partner": "ITDRC\/NoaNet\/Washington State", "USER_Field9": null }, "geometry": { "type": "Point", "coordinates": [ -119.553833, 47.313799000000103 ] } },
{ "type": "Feature", "properties": { "OBJECTID": 93, "X": -119.547647, "Y": 47.324189, "USER_Site": "Ephrata High School", "USER_Street": "111 4th Ave NW", "USER_City": "Ephrata", "USER_State": "WA", "USER_Zip": 98823, "USER_Hours": null, "USER_Password_Req__Y_N_": null, "USER_Partner": "ITDRC\/NoaNet\/Washington State", "USER_Field9": null }, "geometry": { "type": "Point", "coordinates": [ -119.547647, 47.324189 ] } },
{ "type": "Feature", "properties": { "OBJECTID": 94, "X": -124.421925, "Y": 47.745377, "USER_Site": "Hoh Tribe", "USER_Street": "2426 Lower Hoh Rd.", "USER_City": "Forks", "USER_State": "WA", "USER_Zip": 98331, "USER_Hours": null, "USER_Password_Req__Y_N_": null, "USER_Partner": "ITDRC\/NoaNet\/Washington State", "USER_Field9": null }, "geometry": { "type": "Point", "coordinates": [ -124.421925, 47.745377 ] } },
{ "type": "Feature", "properties": { "OBJECTID": 95, "X": -117.140734, "Y": 47.0135774, "USER_Site": "Garfield School District", "USER_Street": "810 3rd St. ", "USER_City": "Garfield", "USER_State": "WA", "USER_Zip": 99130, "USER_Hours": null, "USER_Password_Req__Y_N_": null, "USER_Partner": "ITDRC\/NoaNet\/Washington State", "USER_Field9": null }, "geometry": { "type": "Point", "coordinates": [ -117.140734, 47.0135774 ] } },
{ "type": "Feature", "properties": { "OBJECTID": 96, "X": -121.290855, "Y": 46.020239, "USER_Site": "Glenwood School District", "USER_Street": "320 Bunnel St.", "USER_City": "Glenwood ", "USER_State": "WA", "USER_Zip": 98619, "USER_Hours": null, "USER_Password_Req__Y_N_": null, "USER_Partner": "ITDRC\/NoaNet\/Washington State", "USER_Field9": null }, "geometry": { "type": "Point", "coordinates": [ -121.290855, 46.020239000000103 ] } },
{ "type": "Feature", "properties": { "OBJECTID": 97, "X": -119.003348, "Y": 47.938819, "USER_Site": "Grand Coulee School District", "USER_Street": "412 Federal Ave. ", "USER_City": "Grand Coulee", "USER_State": "WA", "USER_Zip": 99133, "USER_Hours": null, "USER_Password_Req__Y_N_": null, "USER_Partner": "ITDRC\/NoaNet\/Washington State", "USER_Field9": null }, "geometry": { "type": "Point", "coordinates": [ -119.003348, 47.938819000000102 ] } },
{ "type": "Feature", "properties": { "OBJECTID": 98, "X": -120.5442, "Y": 46.406826, "USER_Site": "Harrah Schools", "USER_Street": "3852 Harrah Rd.", "USER_City": "Harrah", "USER_State": "WA", "USER_Zip": 98933, "USER_Hours": null, "USER_Password_Req__Y_N_": null, "USER_Partner": "ITDRC\/NoaNet\/Washington State", "USER_Field9": null }, "geometry": { "type": "Point", "coordinates": [ -120.5442, 46.406826000000102 ] } },
{ "type": "Feature", "properties": { "OBJECTID": 99, "X": -124.041232, "Y": 46.305498, "USER_Site": "Grays Harbor College", "USER_Street": "208 Advent Ave. SE", "USER_City": "Ilwaco", "USER_State": "WA", "USER_Zip": 98624, "USER_Hours": null, "USER_Password_Req__Y_N_": null, "USER_Partner": "ITDRC\/NoaNet\/Washington State", "USER_Field9": null }, "geometry": { "type": "Point", "coordinates": [ -124.041232, 46.3054980000001 ] } },
{ "type": "Feature", "properties": { "OBJECTID": 100, "X": -117.400569, "Y": 48.816031, "USER_Site": "Selkirk School", "USER_Street": "10372 Hwy 31", "USER_City": "Ione", "USER_State": "WA", "USER_Zip": 99139, "USER_Hours": null, "USER_Password_Req__Y_N_": null, "USER_Partner": "ITDRC\/NoaNet\/Washington State", "USER_Field9": null }, "geometry": { "type": "Point", "coordinates": [ -117.400569, 48.816031000000102 ] } },
{ "type": "Feature", "properties": { "OBJECTID": 101, "X": -124.0549051, "Y": 46.3602421, "USER_Site": "Church in Long Beach", "USER_Street": "1301 Pacific Ave. N", "USER_City": "Long Beach ", "USER_State": "WA", "USER_Zip": null, "USER_Hours": null, "USER_Password_Req__Y_N_": null, "USER_Partner": "ITDRC\/NoaNet\/Washington State", "USER_Field9": null }, "geometry": { "type": "Point", "coordinates": [ -124.0549051, 46.3602421000001 ] } },
{ "type": "Feature", "properties": { "OBJECTID": 102, "X": -121.282054, "Y": 45.694786, "USER_Site": "Lyle School District", "USER_Street": "625 Keasey Ave.", "USER_City": "Lyle", "USER_State": "WA", "USER_Zip": 98635, "USER_Hours": null, "USER_Password_Req__Y_N_": null, "USER_Partner": "ITDRC\/NoaNet\/Washington State", "USER_Field9": null }, "geometry": { "type": "Point", "coordinates": [ -121.282054, 45.6947860000001 ] } },
{ "type": "Feature", "properties": { "OBJECTID": 103, "X": -119.996739, "Y": 46.21432, "USER_Site": "Mabton SD", "USER_Street": "306 Main St.", "USER_City": "Mabton ", "USER_State": "WA", "USER_Zip": 98935, "USER_Hours": null, "USER_Password_Req__Y_N_": null, "USER_Partner": "ITDRC\/NoaNet\/Washington State", "USER_Field9": null }, "geometry": { "type": "Point", "coordinates": [ -119.996739, 46.21432 ] } },
{ "type": "Feature", "properties": { "OBJECTID": 104, "X": -119.923267, "Y": 46.737699, "USER_Site": "Port of Mattawa office", "USER_Street": "20140 Rd 24 SW", "USER_City": "Mattawa", "USER_State": "WA", "USER_Zip": 99349, "USER_Hours": null, "USER_Password_Req__Y_N_": null, "USER_Partner": "ITDRC\/NoaNet\/Washington State", "USER_Field9": null }, "geometry": { "type": "Point", "coordinates": [ -119.923267, 46.737699 ] } },
{ "type": "Feature", "properties": { "OBJECTID": 105, "X": -118.985281, "Y": 48.164773, "USER_Site": "Nespelem Schools", "USER_Street": "229 School House Loop Rd", "USER_City": "Nespelem", "USER_State": "WA", "USER_Zip": 99155, "USER_Hours": null, "USER_Password_Req__Y_N_": null, "USER_Partner": "ITDRC\/NoaNet\/Washington State", "USER_Field9": null }, "geometry": { "type": "Point", "coordinates": [ -118.985281, 48.164773 ] } },
{ "type": "Feature", "properties": { "OBJECTID": 106, "X": -124.05005, "Y": 46.488568, "USER_Site": "Ocean Park Elementary School", "USER_Street": "25701 Vernon Ave.", "USER_City": "Ocean Park", "USER_State": "WA", "USER_Zip": 98640, "USER_Hours": null, "USER_Password_Req__Y_N_": null, "USER_Partner": "ITDRC\/NoaNet\/Washington State", "USER_Field9": null }, "geometry": { "type": "Point", "coordinates": [ -124.05005, 46.488568 ] } },
{ "type": "Feature", "properties": { "OBJECTID": 107, "X": -123.017271, "Y": 46.903774, "USER_Site": "Tumwater School District", "USER_Street": "12710 Littlerock Road SW", "USER_City": "Olympia", "USER_State": "WA", "USER_Zip": 98512, "USER_Hours": null, "USER_Password_Req__Y_N_": null, "USER_Partner": "ITDRC\/NoaNet\/Washington State", "USER_Field9": null }, "geometry": { "type": "Point", "coordinates": [ -123.017271, 46.903774 ] } },
{ "type": "Feature", "properties": { "OBJECTID": 108, "X": -120.216832, "Y": 47.64073, "USER_Site": "Orondo SD", "USER_Street": "100 Orondo School Rd.", "USER_City": "Orondo ", "USER_State": "WA", "USER_Zip": null, "USER_Hours": null, "USER_Password_Req__Y_N_": null, "USER_Partner": "ITDRC\/NoaNet\/Washington State", "USER_Field9": null }, "geometry": { "type": "Point", "coordinates": [ -120.216832, 47.64073 ] } },
{ "type": "Feature", "properties": { "OBJECTID": 109, "X": -119.484057, "Y": 46.917635, "USER_Site": "Quincy Columbia Basin Irrigation District", "USER_Street": "499-1 Linden St SE", "USER_City": "Othello", "USER_State": "WA", "USER_Zip": 99344, "USER_Hours": null, "USER_Password_Req__Y_N_": null, "USER_Partner": "ITDRC\/NoaNet\/Washington State", "USER_Field9": null }, "geometry": { "type": "Point", "coordinates": [ -119.484057, 46.917635 ] } },
{ "type": "Feature", "properties": { "OBJECTID": 110, "X": -119.480919, "Y": 46.919467, "USER_Site": "Royal Camp", "USER_Street": "11522 1st Avenue", "USER_City": "Othello", "USER_State": "WA", "USER_Zip": 99344, "USER_Hours": null, "USER_Password_Req__Y_N_": null, "USER_Partner": "ITDRC\/NoaNet\/Washington State", "USER_Field9": null }, "geometry": { "type": "Point", "coordinates": [ -119.480919, 46.919467 ] } },
{ "type": "Feature", "properties": { "OBJECTID": 111, "X": -120.09717, "Y": 46.345922, "USER_Site": "Outlook Elementary", "USER_Street": "3800 Van Belle Rd", "USER_City": "Outlook", "USER_State": "WA", "USER_Zip": 98938, "USER_Hours": null, "USER_Password_Req__Y_N_": null, "USER_Partner": "ITDRC\/NoaNet\/Washington State", "USER_Field9": null }, "geometry": { "type": "Point", "coordinates": [ -120.09717, 46.345922 ] } },
{ "type": "Feature", "properties": { "OBJECTID": 112, "X": -119.9183563, "Y": 47.4164026, "USER_Site": "Palisades School District", "USER_Street": "1114 Palisades Rd.", "USER_City": "Palisades", "USER_State": "WA", "USER_Zip": 98845, "USER_Hours": null, "USER_Password_Req__Y_N_": null, "USER_Partner": "ITDRC\/NoaNet\/Washington State", "USER_Field9": null }, "geometry": { "type": "Point", "coordinates": [ -119.9183563, 47.4164026 ] } },
{ "type": "Feature", "properties": { "OBJECTID": 113, "X": -118.71788, "Y": 46.442176, "USER_Site": "Star School District", "USER_Street": "24180 Pasco Kahlotus Rd.", "USER_City": "Pasco", "USER_State": "WA", "USER_Zip": 99301, "USER_Hours": null, "USER_Password_Req__Y_N_": null, "USER_Partner": "ITDRC\/NoaNet\/Washington State", "USER_Field9": null }, "geometry": { "type": "Point", "coordinates": [ -118.71788, 46.442176000000103 ] } },
{ "type": "Feature", "properties": { "OBJECTID": 114, "X": -119.905847, "Y": 48.052004, "USER_Site": "Pateros", "USER_Street": "344 Beach St", "USER_City": "Pateros", "USER_State": "WA", "USER_Zip": 98846, "USER_Hours": null, "USER_Password_Req__Y_N_": null, "USER_Partner": "ITDRC\/NoaNet\/Washington State", "USER_Field9": null }, "geometry": { "type": "Point", "coordinates": [ -119.905847, 48.052004000000103 ] } },
{ "type": "Feature", "properties": { "OBJECTID": 115, "X": -117.596366, "Y": 46.472157, "USER_Site": "Pomeroy Schools", "USER_Street": "1090 Pataha St.", "USER_City": "Pomeroy", "USER_State": "WA", "USER_Zip": 99347, "USER_Hours": null, "USER_Password_Req__Y_N_": null, "USER_Partner": "ITDRC\/NoaNet\/Washington State", "USER_Field9": null }, "geometry": { "type": "Point", "coordinates": [ -117.596366, 46.472157 ] } },
{ "type": "Feature", "properties": { "OBJECTID": 116, "X": -119.75254, "Y": 46.209352, "USER_Site": "Housel Middle School", "USER_Street": "2001 Highland Dr.", "USER_City": "Prosser ", "USER_State": "WA", "USER_Zip": 99350, "USER_Hours": null, "USER_Password_Req__Y_N_": null, "USER_Partner": "ITDRC\/NoaNet\/Washington State", "USER_Field9": null }, "geometry": { "type": "Point", "coordinates": [ -119.75254, 46.209352000000102 ] } },
{ "type": "Feature", "properties": { "OBJECTID": 117, "X": -119.766933, "Y": 46.204065, "USER_Site": "Prosser High School", "USER_Street": "1203 Prosser Ave.", "USER_City": "Prosser ", "USER_State": "WA", "USER_Zip": 99350, "USER_Hours": null, "USER_Password_Req__Y_N_": null, "USER_Partner": "ITDRC\/NoaNet\/Washington State", "USER_Field9": null }, "geometry": { "type": "Point", "coordinates": [ -119.766933, 46.204065 ] } },
{ "type": "Feature", "properties": { "OBJECTID": 118, "X": -119.859178, "Y": 47.079224, "USER_Site": "George Community Hall", "USER_Street": "403 W Montmorency Blvd", "USER_City": "Quincy", "USER_State": "WA", "USER_Zip": 98848, "USER_Hours": null, "USER_Password_Req__Y_N_": null, "USER_Partner": "ITDRC\/NoaNet\/Washington State", "USER_Field9": null }, "geometry": { "type": "Point", "coordinates": [ -119.859178, 47.079224000000103 ] } },
{ "type": "Feature", "properties": { "OBJECTID": 119, "X": -120.2185077, "Y": 45.741019, "USER_Site": "Roosevelt School District", "USER_Street": "615 Chinook Ave.", "USER_City": "Roosevelt", "USER_State": "WA", "USER_Zip": 99356, "USER_Hours": null, "USER_Password_Req__Y_N_": null, "USER_Partner": "ITDRC\/NoaNet\/Washington State", "USER_Field9": null }, "geometry": { "type": "Point", "coordinates": [ -120.2185077, 45.741019000000101 ] } },
{ "type": "Feature", "properties": { "OBJECTID": 120, "X": -122.833104, "Y": 47.636042, "USER_Site": "Seabeck Elementary - Central Kitsap School District", "USER_Street": "15565 Seabeck Hwy NW", "USER_City": "Seabeck ", "USER_State": "WA", "USER_Zip": 98380, "USER_Hours": null, "USER_Password_Req__Y_N_": null, "USER_Partner": "ITDRC\/NoaNet\/Washington State", "USER_Field9": null }, "geometry": { "type": "Point", "coordinates": [ -122.833104, 47.636042 ] } },
{ "type": "Feature", "properties": { "OBJECTID": 121, "X": -119.49334, "Y": 47.373514, "USER_Site": "Lakeview - park\/fire department", "USER_Street": "155 Wa-28", "USER_City": "Soap Lake", "USER_State": "WA", "USER_Zip": 98851, "USER_Hours": null, "USER_Password_Req__Y_N_": null, "USER_Partner": "ITDRC\/NoaNet\/Washington State", "USER_Field9": null }, "geometry": { "type": "Point", "coordinates": [ -119.49334, 47.3735140000001 ] } },
{ "type": "Feature", "properties": { "OBJECTID": 122, "X": -119.4996633, "Y": 47.3850553, "USER_Site": "Soap Lake School District", "USER_Street": "410 Gingko St. S", "USER_City": "Soap Lake", "USER_State": "WA", "USER_Zip": 98851, "USER_Hours": null, "USER_Password_Req__Y_N_": null, "USER_Partner": "ITDRC\/NoaNet\/Washington State", "USER_Field9": null }, "geometry": { "type": "Point", "coordinates": [ -119.4996633, 47.3850553 ] } },
{ "type": "Feature", "properties": { "OBJECTID": 123, "X": -118.12266, "Y": 46.517898, "USER_Site": "Starbuck School District", "USER_Street": "717 Tucanon St.", "USER_City": "Starbuck", "USER_State": "WA", "USER_Zip": 99359, "USER_Hours": null, "USER_Password_Req__Y_N_": null, "USER_Partner": "ITDRC\/NoaNet\/Washington State", "USER_Field9": null }, "geometry": { "type": "Point", "coordinates": [ -118.12266, 46.517898000000102 ] } },
{ "type": "Feature", "properties": { "OBJECTID": 124, "X": -122.049571, "Y": 45.617458, "USER_Site": "Skamania School District", "USER_Street": "122 Butler Loop Rd", "USER_City": "Stevenson", "USER_State": "WA", "USER_Zip": 98648, "USER_Hours": null, "USER_Password_Req__Y_N_": null, "USER_Partner": "ITDRC\/NoaNet\/Washington State", "USER_Field9": null }, "geometry": { "type": "Point", "coordinates": [ -122.049571, 45.617458 ] } },
{ "type": "Feature", "properties": { "OBJECTID": 125, "X": -120.008578, "Y": 46.317375, "USER_Site": "Washington Elementary", "USER_Street": "1101 S 9th St.", "USER_City": "Sunnyside ", "USER_State": "WA", "USER_Zip": 98944, "USER_Hours": null, "USER_Password_Req__Y_N_": null, "USER_Partner": "ITDRC\/NoaNet\/Washington State", "USER_Field9": null }, "geometry": { "type": "Point", "coordinates": [ -120.008578, 46.317375 ] } },
{ "type": "Feature", "properties": { "OBJECTID": 126, "X": -119.096655, "Y": 48.587511, "USER_Site": "Aeneas Church", "USER_Street": "1083 Aeneas Valley Road", "USER_City": "Tonasket", "USER_State": "WA", "USER_Zip": 98855, "USER_Hours": null, "USER_Password_Req__Y_N_": null, "USER_Partner": "ITDRC\/NoaNet\/Washington State", "USER_Field9": null }, "geometry": { "type": "Point", "coordinates": [ -119.096655, 48.587511 ] } },
{ "type": "Feature", "properties": { "OBJECTID": 127, "X": -117.285058, "Y": 48.306992, "USER_Site": "Crossroads Restaurant - Kalispel", "USER_Street": "421341 Hwy 20", "USER_City": "Usk", "USER_State": "WA", "USER_Zip": 99180, "USER_Hours": null, "USER_Password_Req__Y_N_": null, "USER_Partner": "ITDRC\/NoaNet\/Washington State", "USER_Field9": null }, "geometry": { "type": "Point", "coordinates": [ -117.285058, 48.306992 ] } },
{ "type": "Feature", "properties": { "OBJECTID": 128, "X": -118.356788, "Y": 46.070946, "USER_Site": "Northside Advent Church", "USER_Street": "1103 Dell Ave", "USER_City": "Walla Walla", "USER_State": " WA", "USER_Zip": 99362, "USER_Hours": null, "USER_Password_Req__Y_N_": null, "USER_Partner": "ITDRC\/NoaNet\/Washington State", "USER_Field9": null }, "geometry": { "type": "Point", "coordinates": [ -118.356788, 46.070946 ] } },
{ "type": "Feature", "properties": { "OBJECTID": 129, "X": -118.351627, "Y": 46.07718, "USER_Site": "Carrie Community Center", "USER_Street": "711 Carrie Ave", "USER_City": "Walla Walla", "USER_State": "WA", "USER_Zip": 99362, "USER_Hours": null, "USER_Password_Req__Y_N_": null, "USER_Partner": "ITDRC\/NoaNet\/Washington State", "USER_Field9": null }, "geometry": { "type": "Point", "coordinates": [ -118.351627, 46.07718 ] } },
{ "type": "Feature", "properties": { "OBJECTID": 130, "X": -120.422489, "Y": 46.445817, "USER_Site": "Pace High School", "USER_Street": "310 S. Wasco Ave.", "USER_City": "Wapato", "USER_State": "WA", "USER_Zip": 98951, "USER_Hours": null, "USER_Password_Req__Y_N_": null, "USER_Partner": "ITDRC\/NoaNet\/Washington State", "USER_Field9": null }, "geometry": { "type": "Point", "coordinates": [ -120.422489, 46.445817 ] } },
{ "type": "Feature", "properties": { "OBJECTID": 131, "X": -120.417414, "Y": 46.434978, "USER_Site": "Wapato High School", "USER_Street": "1202 Camas Ave", "USER_City": "Wapato", "USER_State": "WA", "USER_Zip": 98951, "USER_Hours": null, "USER_Password_Req__Y_N_": null, "USER_Partner": "ITDRC\/NoaNet\/Washington State", "USER_Field9": null }, "geometry": { "type": "Point", "coordinates": [ -120.417414, 46.4349780000001 ] } },
{ "type": "Feature", "properties": { "OBJECTID": 132, "X": -120.414603, "Y": 46.439124, "USER_Site": "Wapato Middle School", "USER_Street": "1309 Kateri Ln", "USER_City": "Wapato", "USER_State": "WA", "USER_Zip": 98951, "USER_Hours": null, "USER_Password_Req__Y_N_": null, "USER_Partner": "ITDRC\/NoaNet\/Washington State", "USER_Field9": null }, "geometry": { "type": "Point", "coordinates": [ -120.414603, 46.439124 ] } },
{ "type": "Feature", "properties": { "OBJECTID": 133, "X": -119.043648, "Y": 46.962737, "USER_Site": "Warden SD", "USER_Street": "101 W. Beck Way", "USER_City": "Warden", "USER_State": "WA", "USER_Zip": 98857, "USER_Hours": null, "USER_Password_Req__Y_N_": null, "USER_Partner": "ITDRC\/NoaNet\/Washington State", "USER_Field9": null }, "geometry": { "type": "Point", "coordinates": [ -119.043648, 46.962737 ] } },
{ "type": "Feature", "properties": { "OBJECTID": 134, "X": -120.0707203, "Y": 47.6454069, "USER_Site": "Waterville School District ", "USER_Street": "200 E. Birch St.", "USER_City": "Waterville", "USER_State": "WA", "USER_Zip": 98858, "USER_Hours": null, "USER_Password_Req__Y_N_": null, "USER_Partner": "ITDRC\/NoaNet\/Washington State", "USER_Field9": null }, "geometry": { "type": "Point", "coordinates": [ -120.0707203, 47.645406900000097 ] } },
{ "type": "Feature", "properties": { "OBJECTID": 135, "X": -120.327222, "Y": 47.411622, "USER_Site": "Wenatchee HS", "USER_Street": "1101 Millerdale Ave.", "USER_City": "Wenatchee", "USER_State": "WA", "USER_Zip": 98801, "USER_Hours": null, "USER_Password_Req__Y_N_": null, "USER_Partner": "ITDRC\/NoaNet\/Washington State", "USER_Field9": null }, "geometry": { "type": "Point", "coordinates": [ -120.327222, 47.411622000000101 ] } },
{ "type": "Feature", "properties": { "OBJECTID": 136, "X": -120.732531, "Y": 46.37555, "USER_Site": "Mount Adams", "USER_Street": "621 Signal Peak Rd", "USER_City": "White Swan", "USER_State": "WA", "USER_Zip": 98952, "USER_Hours": null, "USER_Password_Req__Y_N_": null, "USER_Partner": "ITDRC\/NoaNet\/Washington State", "USER_Field9": null }, "geometry": { "type": "Point", "coordinates": [ -120.732531, 46.37555 ] } },
{ "type": "Feature", "properties": { "OBJECTID": 137, "X": -118.687828, "Y": 47.330467, "USER_Site": "Odessa School District", "USER_Street": "311 S First St.", "USER_City": "Odessa", "USER_State": "WA", "USER_Zip": 99159, "USER_Hours": null, "USER_Password_Req__Y_N_": null, "USER_Partner": "ITDRC\/NoaNet\/Washington State ", "USER_Field9": null }, "geometry": { "type": "Point", "coordinates": [ -118.687828, 47.330467 ] } },
{ "type": "Feature", "properties": { "OBJECTID": 138, "X": -118.370579, "Y": 47.126128, "USER_Site": "Ritzville School District", "USER_Street": "401 E. 6th Ave", "USER_City": "Ritzville", "USER_State": "WA", "USER_Zip": 99169, "USER_Hours": null, "USER_Password_Req__Y_N_": null, "USER_Partner": "ITDRC\/NoaNet\/Washington State ", "USER_Field9": null }, "geometry": { "type": "Point", "coordinates": [ -118.370579, 47.126128000000101 ] } },
{ "type": "Feature", "properties": { "OBJECTID": 139, "X": -118.3398874, "Y": 46.0698054, "USER_Site": "Kirkman House Musuem", "USER_Street": "214 N. Colville St.", "USER_City": "Walla Walla", "USER_State": "WA", "USER_Zip": 99362, "USER_Hours": null, "USER_Password_Req__Y_N_": null, "USER_Partner": "ITDRC\/NoaNet\/Washington State ", "USER_Field9": null }, "geometry": { "type": "Point", "coordinates": [ -118.3398874, 46.069805400000099 ] } },
{ "type": "Feature", "properties": { "OBJECTID": 140, "X": -117.3502927, "Y": 47.9686353, "USER_Site": "Riverside High School", "USER_Street": "34515 N Newport Hwy", "USER_City": "Chattaroy", "USER_State": "WA", "USER_Zip": 99003, "USER_Hours": null, "USER_Password_Req__Y_N_": null, "USER_Partner": "ITDRC\/NoaNet\/Washington State\/Avista Foundation", "USER_Field9": null }, "geometry": { "type": "Point", "coordinates": [ -117.3502927, 47.968635300000102 ] } },
{ "type": "Feature", "properties": { "OBJECTID": 141, "X": -118.518767, "Y": 47.755927, "USER_Site": "Creston School", "USER_Street": "485 S. E St.", "USER_City": "Creston", "USER_State": "WA", "USER_Zip": 99117, "USER_Hours": null, "USER_Password_Req__Y_N_": null, "USER_Partner": "ITDRC\/NoaNet\/Washington State\/Avista Foundation", "USER_Field9": null }, "geometry": { "type": "Point", "coordinates": [ -118.518767, 47.755927 ] } },
{ "type": "Feature", "properties": { "OBJECTID": 142, "X": -118.151008, "Y": 47.651498, "USER_Site": "Davenport School", "USER_Street": "801 7th Street", "USER_City": "Davenport", "USER_State": "WA", "USER_Zip": 99122, "USER_Hours": null, "USER_Password_Req__Y_N_": null, "USER_Partner": "ITDRC\/NoaNet\/Washington State\/Avista Foundation", "USER_Field9": null }, "geometry": { "type": "Point", "coordinates": [ -118.151008, 47.651498000000103 ] } },
{ "type": "Feature", "properties": { "OBJECTID": 143, "X": -118.251539, "Y": 47.478967, "USER_Site": "Harrington School", "USER_Street": "100 S 1st St", "USER_City": "Harrington", "USER_State": "WA", "USER_Zip": 99134, "USER_Hours": null, "USER_Password_Req__Y_N_": null, "USER_Partner": "ITDRC\/NoaNet\/Washington State\/Avista Foundation", "USER_Field9": null }, "geometry": { "type": "Point", "coordinates": [ -118.251539, 47.478967 ] } },
{ "type": "Feature", "properties": { "OBJECTID": 144, "X": -118.709263, "Y": 47.754665, "USER_Site": "Wilbur School", "USER_Street": "202 Pope St. ", "USER_City": "Wilbur", "USER_State": "WA", "USER_Zip": 99185, "USER_Hours": null, "USER_Password_Req__Y_N_": null, "USER_Partner": "ITDRC\/NoaNet\/Washington State\/Avista Foundation", "USER_Field9": null }, "geometry": { "type": "Point", "coordinates": [ -118.709263, 47.754665 ] } },
{ "type": "Feature", "properties": { "OBJECTID": 145, "X": -119.286703, "Y": 47.611166, "USER_Site": "Brick House", "USER_Street": "312 E Main Street", "USER_City": "Coulee City", "USER_State": "WA", "USER_Zip": 99115, "USER_Hours": null, "USER_Password_Req__Y_N_": null, "USER_Partner": "ITDRC\/NoaNet\/Washington State\/Grant PUD", "USER_Field9": null }, "geometry": { "type": "Point", "coordinates": [ -119.286703, 47.611166 ] } },
{ "type": "Feature", "properties": { "OBJECTID": 146, "X": -119.039051, "Y": 47.9314252, "USER_Site": "Electric City Town Hall", "USER_Street": "10 Western Avenue", "USER_City": "Electric City", "USER_State": "WA", "USER_Zip": 99123, "USER_Hours": null, "USER_Password_Req__Y_N_": null, "USER_Partner": "ITDRC\/NoaNet\/Washington State\/Grant PUD", "USER_Field9": null }, "geometry": { "type": "Point", "coordinates": [ -119.039051, 47.9314252 ] } },
{ "type": "Feature", "properties": { "OBJECTID": 147, "X": -119.108597, "Y": 47.685215, "USER_Site": "Hartline Gym - US Hwy 2 and Chelan St.", "USER_Street": "92 Chelan St.", "USER_City": "Hartline", "USER_State": "WA", "USER_Zip": 99135, "USER_Hours": null, "USER_Password_Req__Y_N_": null, "USER_Partner": "ITDRC\/NoaNet\/Washington State\/Grant PUD", "USER_Field9": null }, "geometry": { "type": "Point", "coordinates": [ -119.108597, 47.685215 ] } },
{ "type": "Feature", "properties": { "OBJECTID": 148, "X": -119.330431, "Y": 47.105361, "USER_Site": "Blue Heron Park", "USER_Street": "111 Westshore Dr.", "USER_City": "Moses Lake", "USER_State": "WA", "USER_Zip": 98837, "USER_Hours": null, "USER_Password_Req__Y_N_": null, "USER_Partner": "ITDRC\/NoaNet\/Washington State\/Grant PUD", "USER_Field9": null }, "geometry": { "type": "Point", "coordinates": [ -119.330431, 47.105361000000102 ] } },
{ "type": "Feature", "properties": { "OBJECTID": 149, "X": -119.312792, "Y": 47.139176, "USER_Site": "Cascade Valley Park", "USER_Street": "2001 W. Valley Rd.", "USER_City": "Moses Lake", "USER_State": "WA", "USER_Zip": 98837, "USER_Hours": null, "USER_Password_Req__Y_N_": null, "USER_Partner": "ITDRC\/NoaNet\/Washington State\/Grant PUD", "USER_Field9": null }, "geometry": { "type": "Point", "coordinates": [ -119.312792, 47.139176 ] } },
{ "type": "Feature", "properties": { "OBJECTID": 150, "X": -119.483266, "Y": 47.386426, "USER_Site": "Chamber of Commerce\/East Beach Park", "USER_Street": "301 Daisy Street", "USER_City": "Soap Lake", "USER_State": "WA", "USER_Zip": 98851, "USER_Hours": null, "USER_Password_Req__Y_N_": null, "USER_Partner": "ITDRC\/NoaNet\/Washington State\/Grant PUD", "USER_Field9": null }, "geometry": { "type": "Point", "coordinates": [ -119.483266, 47.386426 ] } },
{ "type": "Feature", "properties": { "OBJECTID": 151, "X": -123.456216, "Y": 47.003403, "USER_Site": "Satsop School", "USER_Street": "583 Monte Elma Rd", "USER_City": "Elma", "USER_State": "WA", "USER_Zip": 98440, "USER_Hours": null, "USER_Password_Req__Y_N_": null, "USER_Partner": "ITDRC\/NoaNet\/Washington State\/Grays Harbor PUD", "USER_Field9": null }, "geometry": { "type": "Point", "coordinates": [ -123.456216, 47.003403 ] } },
{ "type": "Feature", "properties": { "OBJECTID": 152, "X": -123.265141, "Y": 47.055275, "USER_Site": "McCleary City Hall", "USER_Street": "100 S 3rd St", "USER_City": "McCleary", "USER_State": "WA", "USER_Zip": 98557, "USER_Hours": null, "USER_Password_Req__Y_N_": null, "USER_Partner": "ITDRC\/NoaNet\/Washington State\/Grays Harbor PUD", "USER_Field9": null }, "geometry": { "type": "Point", "coordinates": [ -123.265141, 47.055275000000101 ] } },
{ "type": "Feature", "properties": { "OBJECTID": 153, "X": -123.897751, "Y": 47.459709, "USER_Site": "Quinault School District", "USER_Street": "6130 US-101", "USER_City": "Amanda Park", "USER_State": "WA ", "USER_Zip": 98526, "USER_Hours": null, "USER_Password_Req__Y_N_": null, "USER_Partner": "ITDRC\/NoaNet\/Washington State\/Grays Harbor PUD ", "USER_Field9": null }, "geometry": { "type": "Point", "coordinates": [ -123.897751, 47.459709 ] } },
{ "type": "Feature", "properties": { "OBJECTID": 154, "X": -123.240537, "Y": 46.840831, "USER_Site": "Oakville School District", "USER_Street": "103 School St.", "USER_City": "Oakville ", "USER_State": "WA", "USER_Zip": 98568, "USER_Hours": null, "USER_Password_Req__Y_N_": null, "USER_Partner": "ITDRC\/NoaNet\/Washington State\/Grays Harbor PUD ", "USER_Field9": null }, "geometry": { "type": "Point", "coordinates": [ -123.240537, 46.840831 ] } },
{ "type": "Feature", "properties": { "OBJECTID": 155, "X": -122.719572, "Y": 46.581445, "USER_Site": "Onalaska School District - Elementary School", "USER_Street": "540 Carlisle Ave", "USER_City": "Onalaska", "USER_State": "WA", "USER_Zip": 98570, "USER_Hours": null, "USER_Password_Req__Y_N_": null, "USER_Partner": "ITDRC\/NoaNet\/Washington State\/Onalaska School District ", "USER_Field9": null }, "geometry": { "type": "Point", "coordinates": [ -122.719572, 46.581445 ] } },
{ "type": "Feature", "properties": { "OBJECTID": 156, "X": -122.77167, "Y": 48.033369, "USER_Site": "JEFFERSON COUNTY LIBRARY", "USER_Street": "620 CEDAR AVENUE", "USER_City": "PORT HADLOCK", "USER_State": "WA", "USER_Zip": 98339, "USER_Hours": "24x7", "USER_Password_Req__Y_N_": "No", "USER_Partner": "JEFFERSON COUNTY RURAL LIBRARY DISTRICT", "USER_Field9": null }, "geometry": { "type": "Point", "coordinates": [ -122.77167, 48.0333690000001 ] } },
{ "type": "Feature", "properties": { "OBJECTID": 157, "X": -122.711122, "Y": 48.08586, "USER_Site": "Marrowstone Fire Station", "USER_Street": "6693 Flager Rd.", "USER_City": "Nordland", "USER_State": "WA", "USER_Zip": 98358, "USER_Hours": null, "USER_Password_Req__Y_N_": null, "USER_Partner": "Jefferson PUD", "USER_Field9": null }, "geometry": { "type": "Point", "coordinates": [ -122.711122, 48.08586 ] } },
{ "type": "Feature", "properties": { "OBJECTID": 158, "X": -122.769328, "Y": 48.015351, "USER_Site": "Chimacum Substation", "USER_Street": "1261 Chimacum Rd", "USER_City": "Port Hadlock", "USER_State": "WA", "USER_Zip": 98339, "USER_Hours": null, "USER_Password_Req__Y_N_": null, "USER_Partner": "Jefferson PUD", "USER_Field9": null }, "geometry": { "type": "Point", "coordinates": [ -122.769328, 48.015351000000102 ] } },
{ "type": "Feature", "properties": { "OBJECTID": 159, "X": -122.771733, "Y": 48.111838, "USER_Site": "Dana Roberst Substation", "USER_Street": "2150 Clay St.", "USER_City": "Port Townsend", "USER_State": "WA", "USER_Zip": 98368, "USER_Hours": null, "USER_Password_Req__Y_N_": null, "USER_Partner": "Jefferson PUD", "USER_Field9": null }, "geometry": { "type": "Point", "coordinates": [ -122.771733, 48.111838 ] } },
{ "type": "Feature", "properties": { "OBJECTID": 160, "X": -122.790754, "Y": 48.114626, "USER_Site": "Hastings Substation", "USER_Street": "2000 Sheridan St", "USER_City": "Port Townsend", "USER_State": "WA", "USER_Zip": 98368, "USER_Hours": null, "USER_Password_Req__Y_N_": null, "USER_Partner": "Jefferson PUD", "USER_Field9": null }, "geometry": { "type": "Point", "coordinates": [ -122.790754, 48.114626 ] } },
{ "type": "Feature", "properties": { "OBJECTID": 161, "X": -122.810727, "Y": 48.057653, "USER_Site": "Jefferson County Airport", "USER_Street": "302 Airport Rd", "USER_City": "Port Townsend", "USER_State": "WA", "USER_Zip": 98368, "USER_Hours": null, "USER_Password_Req__Y_N_": null, "USER_Partner": "Jefferson PUD", "USER_Field9": null }, "geometry": { "type": "Point", "coordinates": [ -122.810727, 48.057653000000101 ] } },
{ "type": "Feature", "properties": { "OBJECTID": 162, "X": -122.815094, "Y": 48.048762, "USER_Site": "Jefferson Public Utility  Main Office", "USER_Street": "210 Four Corners Rd", "USER_City": "Port Townsend", "USER_State": "WA", "USER_Zip": 98368, "USER_Hours": null, "USER_Password_Req__Y_N_": null, "USER_Partner": "Jefferson PUD", "USER_Field9": null }, "geometry": { "type": "Point", "coordinates": [ -122.815094, 48.048762000000103 ] } },
{ "type": "Feature", "properties": { "OBJECTID": 163, "X": -122.773379, "Y": 48.109252, "USER_Site": "Port Townsend Visitor Center", "USER_Street": "2409 Jefferson St", "USER_City": "Port Townsend", "USER_State": "WA", "USER_Zip": 98368, "USER_Hours": null, "USER_Password_Req__Y_N_": null, "USER_Partner": "Jefferson PUD", "USER_Field9": null }, "geometry": { "type": "Point", "coordinates": [ -122.773379, 48.109252 ] } },
{ "type": "Feature", "properties": { "OBJECTID": 164, "X": -122.849606, "Y": 47.8236, "USER_Site": "Quilcene Substation", "USER_Street": "1293 E Quilcene Rd.", "USER_City": "Quilcene ", "USER_State": "WA", "USER_Zip": 98376, "USER_Hours": null, "USER_Password_Req__Y_N_": null, "USER_Partner": "Jefferson PUD", "USER_Field9": null }, "geometry": { "type": "Point", "coordinates": [ -122.849606, 47.8236 ] } },
{ "type": "Feature", "properties": { "OBJECTID": 165, "X": -122.909261, "Y": 48.049602, "USER_Site": "Gardiner Fire Station", "USER_Street": "2000 Old Gardiner Rd", "USER_City": "Sequim", "USER_State": "WA", "USER_Zip": 98382, "USER_Hours": null, "USER_Password_Req__Y_N_": null, "USER_Partner": "Jefferson PUD", "USER_Field9": null }, "geometry": { "type": "Point", "coordinates": [ -122.909261, 48.0496020000001 ] } },
{ "type": "Feature", "properties": { "OBJECTID": 166, "X": -122.845336, "Y": 46.009854, "USER_Site": "KALAMA PUBLIC LIBRARY", "USER_Street": "312 N 1ST", "USER_City": "KALAMA", "USER_State": "WA", "USER_Zip": 98625, "USER_Hours": "6:00am - 10:00pm", "USER_Password_Req__Y_N_": "No", "USER_Partner": "KALAMA PUBLIC LIBRARY", "USER_Field9": null }, "geometry": { "type": "Point", "coordinates": [ -122.845336, 46.009854 ] } },
{ "type": "Feature", "properties": { "OBJECTID": 167, "X": -122.11257, "Y": 47.24346, "USER_Site": "MUCKLESHOOT LIBRARY", "USER_Street": "39917 AUBURN ENUMCLAW ROAD SE", "USER_City": "AUBURN", "USER_State": "WA", "USER_Zip": 98092, "USER_Hours": "Normal branch operating hours", "USER_Password_Req__Y_N_": "No", "USER_Partner": "KING COUNTY LIBRARY SYSTEM\/ITDRC\/NoaNet\/Washington State", "USER_Field9": null }, "geometry": { "type": "Point", "coordinates": [ -122.11257, 47.24346 ] } },
{ "type": "Feature", "properties": { "OBJECTID": 168, "X": -121.912442, "Y": 47.65055, "USER_Site": "CARNATION LIBRARY", "USER_Street": "4804 TOLT AVENUE", "USER_City": "CARNATION", "USER_State": "WA", "USER_Zip": 98014, "USER_Hours": "Normal branch operating hours", "USER_Password_Req__Y_N_": "No", "USER_Partner": "KING COUNTY LIBRARY SYSTEM\/ITDRC\/NoaNet\/Washington State", "USER_Field9": null }, "geometry": { "type": "Point", "coordinates": [ -121.912442, 47.650550000000102 ] } },
{ "type": "Feature", "properties": { "OBJECTID": 169, "X": -121.893708, "Y": 47.568902, "USER_Site": "FALL CITY LIBRARY", "USER_Street": "33415 SE 42ND PLACE", "USER_City": "FALL CITY", "USER_State": "WA", "USER_Zip": 98024, "USER_Hours": "Normal branch operating hours", "USER_Password_Req__Y_N_": "No", "USER_Partner": "KING COUNTY LIBRARY SYSTEM\/ITDRC\/NoaNet\/Washington State", "USER_Field9": null }, "geometry": { "type": "Point", "coordinates": [ -121.893708, 47.568902 ] } },
{ "type": "Feature", "properties": { "OBJECTID": 170, "X": -121.782963, "Y": 47.497034, "USER_Site": "NORTH BEND LIBRARY", "USER_Street": "115 E 4TH STREET", "USER_City": "NORTH BEND", "USER_State": "WA", "USER_Zip": 98045, "USER_Hours": "Normal branch operating hours", "USER_Password_Req__Y_N_": "No", "USER_Partner": "KING COUNTY LIBRARY SYSTEM\/ITDRC\/NoaNet\/Washington State", "USER_Field9": null }, "geometry": { "type": "Point", "coordinates": [ -121.782963, 47.497034 ] } },
{ "type": "Feature", "properties": { "OBJECTID": 171, "X": -124.0502, "Y": 46.486202, "USER_Site": "Kiss of Mist Espresso", "USER_Street": "25311 Vernon Ave", "USER_City": "Ocean Park", "USER_State": "WA", "USER_Zip": 98640, "USER_Hours": null, "USER_Password_Req__Y_N_": null, "USER_Partner": "Kiss of Mist Espresso", "USER_Field9": null }, "geometry": { "type": "Point", "coordinates": [ -124.0502, 46.486202 ] } },
{ "type": "Feature", "properties": { "OBJECTID": 172, "X": -122.520981, "Y": 47.635349, "USER_Site": "BAINBRIDGE ISLAND LIBRARY", "USER_Street": "1270 MADISON N.", "USER_City": "BAINBRIDGE ISLAND", "USER_State": "WA", "USER_Zip": 98110, "USER_Hours": "24x7", "USER_Password_Req__Y_N_": "No", "USER_Partner": "KITSAP REGIONAL LIBRARY", "USER_Field9": null }, "geometry": { "type": "Point", "coordinates": [ -122.520981, 47.635349 ] } },
{ "type": "Feature", "properties": { "OBJECTID": 173, "X": -122.628381, "Y": 47.566567, "USER_Site": "DOWNTOWN BREMERTON LIBRARY", "USER_Street": "612 5TH ST.", "USER_City": "BREMERTON", "USER_State": "WA", "USER_Zip": 98337, "USER_Hours": "7:00am - 10:00pm", "USER_Password_Req__Y_N_": "No", "USER_Partner": "KITSAP REGIONAL LIBRARY", "USER_Field9": null }, "geometry": { "type": "Point", "coordinates": [ -122.628381, 47.566567 ] } },
{ "type": "Feature", "properties": { "OBJECTID": 174, "X": -122.627521, "Y": 47.595572, "USER_Site": "SYLVAN WAY LIBRARY", "USER_Street": "1301 SYLVAN WAY", "USER_City": "BREMERTON", "USER_State": "WA", "USER_Zip": 98310, "USER_Hours": "24x7", "USER_Password_Req__Y_N_": "No", "USER_Partner": "KITSAP REGIONAL LIBRARY", "USER_Field9": null }, "geometry": { "type": "Point", "coordinates": [ -122.627521, 47.595572 ] } },
{ "type": "Feature", "properties": { "OBJECTID": 175, "X": -122.502021, "Y": 47.799669, "USER_Site": "KINGSTON LIBRARY", "USER_Street": "26159 DULAY RD NE", "USER_City": "KINGSTON", "USER_State": "WA", "USER_Zip": 98346, "USER_Hours": "24x7", "USER_Password_Req__Y_N_": "No", "USER_Partner": "KITSAP REGIONAL LIBRARY", "USER_Field9": null }, "geometry": { "type": "Point", "coordinates": [ -122.502021, 47.799669000000101 ] } },
{ "type": "Feature", "properties": { "OBJECTID": 176, "X": -122.570234, "Y": 47.852732, "USER_Site": "LITTLE BOSTON LIBRARY", "USER_Street": "31980 LITTLE BOSTON RD. NE", "USER_City": "KINGSTON", "USER_State": "WA", "USER_Zip": 98346, "USER_Hours": "24x7", "USER_Password_Req__Y_N_": "No", "USER_Partner": "KITSAP REGIONAL LIBRARY", "USER_Field9": null }, "geometry": { "type": "Point", "coordinates": [ -122.570234, 47.852732000000103 ] } },
{ "type": "Feature", "properties": { "OBJECTID": 177, "X": -122.54524, "Y": 47.555611, "USER_Site": "MANCHESTER LIBRARY", "USER_Street": "8067 E. MAIN ST.", "USER_City": "PORT ORCHARD", "USER_State": "WA", "USER_Zip": 98366, "USER_Hours": "24x7", "USER_Password_Req__Y_N_": "No", "USER_Partner": "KITSAP REGIONAL LIBRARY", "USER_Field9": null }, "geometry": { "type": "Point", "coordinates": [ -122.54524, 47.555611 ] } },
{ "type": "Feature", "properties": { "OBJECTID": 178, "X": -122.636194, "Y": 47.542288, "USER_Site": "PORT ORCHARD LIBRARY", "USER_Street": "87 SIDNEY ST.", "USER_City": "PORT ORCHARD", "USER_State": "WA", "USER_Zip": 98366, "USER_Hours": "24x7", "USER_Password_Req__Y_N_": "No", "USER_Partner": "KITSAP REGIONAL LIBRARY", "USER_Field9": null }, "geometry": { "type": "Point", "coordinates": [ -122.636194, 47.542288 ] } },
{ "type": "Feature", "properties": { "OBJECTID": 179, "X": -122.640817, "Y": 47.735233, "USER_Site": "POULSBO LIBRARY", "USER_Street": "700 NE LINCOLN ST.", "USER_City": "POULSBO", "USER_State": "WA", "USER_Zip": 98370, "USER_Hours": "24x7", "USER_Password_Req__Y_N_": "No", "USER_Partner": "KITSAP REGIONAL LIBRARY", "USER_Field9": null }, "geometry": { "type": "Point", "coordinates": [ -122.640817, 47.7352330000001 ] } },
{ "type": "Feature", "properties": { "OBJECTID": 180, "X": -122.69621, "Y": 47.646047, "USER_Site": "SILVERDALE LIBRARY", "USER_Street": "3450 NW CARLTON ST.", "USER_City": "SILVERDALE", "USER_State": "WA", "USER_Zip": 98383, "USER_Hours": "24x7", "USER_Password_Req__Y_N_": "No", "USER_Partner": "KITSAP REGIONAL LIBRARY", "USER_Field9": null }, "geometry": { "type": "Point", "coordinates": [ -122.69621, 47.646047000000102 ] } },
{ "type": "Feature", "properties": { "OBJECTID": 181, "X": -117.453859, "Y": 47.950242, "USER_Site": "Deer Park Elementary School", "USER_Street": "1500 East D Street", "USER_City": "Deer Park", "USER_State": "WA", "USER_Zip": 99006, "USER_Hours": null, "USER_Password_Req__Y_N_": null, "USER_Partner": "Knightcom", "USER_Field9": null }, "geometry": { "type": "Point", "coordinates": [ -117.453859, 47.950242000000102 ] } },
{ "type": "Feature", "properties": { "OBJECTID": 182, "X": -122.284012, "Y": 46.556361, "USER_Site": "Lewis County PUD Morton Office", "USER_Street": "240 7th Street", "USER_City": "Morton", "USER_State": "WA", "USER_Zip": 98356, "USER_Hours": null, "USER_Password_Req__Y_N_": null, "USER_Partner": "Lewis PUD", "USER_Field9": null }, "geometry": { "type": "Point", "coordinates": [ -122.284012, 46.556361 ] } },
{ "type": "Feature", "properties": { "OBJECTID": 183, "X": -122.48541, "Y": 46.52971, "USER_Site": "Valley View", "USER_Street": "233 Williams Street", "USER_City": "Mossyrock", "USER_State": "WA", "USER_Zip": 98564, "USER_Hours": null, "USER_Password_Req__Y_N_": null, "USER_Partner": "Lewis PUD", "USER_Field9": null }, "geometry": { "type": "Point", "coordinates": [ -122.48541, 46.529710000000101 ] } },
{ "type": "Feature", "properties": { "OBJECTID": 184, "X": -122.7207241, "Y": 46.532433, "USER_Site": "Stanley Store\/Ethel Grange", "USER_Street": "728 Leonard Rd", "USER_City": "Onalaska", "USER_State": "WA", "USER_Zip": 98570, "USER_Hours": null, "USER_Password_Req__Y_N_": null, "USER_Partner": "Lewis PUD", "USER_Field9": null }, "geometry": { "type": "Point", "coordinates": [ -122.7207241, 46.532433 ] } },
{ "type": "Feature", "properties": { "OBJECTID": 185, "X": -121.93395, "Y": 46.53458, "USER_Site": "Randle Substation", "USER_Street": "279 Kehoe Road", "USER_City": "Randle", "USER_State": "WA", "USER_Zip": 98377, "USER_Hours": null, "USER_Password_Req__Y_N_": null, "USER_Partner": "Lewis PUD", "USER_Field9": null }, "geometry": { "type": "Point", "coordinates": [ -121.93395, 46.53458 ] } },
{ "type": "Feature", "properties": { "OBJECTID": 186, "X": -122.6322249, "Y": 46.5313049, "USER_Site": "Salkum Library", "USER_Street": "2480 US Highway 12", "USER_City": "Salkum", "USER_State": "WA", "USER_Zip": 98582, "USER_Hours": null, "USER_Password_Req__Y_N_": null, "USER_Partner": "Lewis PUD", "USER_Field9": null }, "geometry": { "type": "Point", "coordinates": [ -122.6322249, 46.531304900000102 ] } },
{ "type": "Feature", "properties": { "OBJECTID": 187, "X": -122.942495, "Y": 46.495176, "USER_Site": "Winlock Skate Park", "USER_Street": "214 NW King Rd", "USER_City": "Winlock", "USER_State": "WA", "USER_Zip": 98596, "USER_Hours": null, "USER_Password_Req__Y_N_": null, "USER_Partner": "Lewis PUD", "USER_Field9": null }, "geometry": { "type": "Point", "coordinates": [ -122.942495, 46.4951760000001 ] } },
{ "type": "Feature", "properties": { "OBJECTID": 188, "X": -117.095686, "Y": 47.671317, "USER_Site": "LIBERTY LAKE MUNICIPAL LIBRARY", "USER_Street": "23123 E. MISSION AVE", "USER_City": "LIBERTY LAKE", "USER_State": "WA", "USER_Zip": 99019, "USER_Hours": "24x7", "USER_Password_Req__Y_N_": "No", "USER_Partner": "LIBERTY LAKE MUNICIPAL LIBRARY", "USER_Field9": null }, "geometry": { "type": "Point", "coordinates": [ -117.095686, 47.671317 ] } },
{ "type": "Feature", "properties": { "OBJECTID": 189, "X": -120.467686, "Y": 47.523427, "USER_Site": "Cashmere Riverside Center", "USER_Street": "201 Riverside Dr", "USER_City": "Cashmere", "USER_State": "WA", "USER_Zip": 98815, "USER_Hours": null, "USER_Password_Req__Y_N_": null, "USER_Partner": "LocalTel & Chelan PUD", "USER_Field9": null }, "geometry": { "type": "Point", "coordinates": [ -120.467686, 47.523427 ] } },
{ "type": "Feature", "properties": { "OBJECTID": 190, "X": -120.4968, "Y": 47.521368, "USER_Site": "Downtown", "USER_Street": "5700 Wescott Dr", "USER_City": "Cashmere", "USER_State": "WA", "USER_Zip": 98815, "USER_Hours": null, "USER_Password_Req__Y_N_": null, "USER_Partner": "LocalTel & Chelan PUD", "USER_Field9": null }, "geometry": { "type": "Point", "coordinates": [ -120.4968, 47.521368000000102 ] } },
{ "type": "Feature", "properties": { "OBJECTID": 191, "X": -120.216818, "Y": 47.673166, "USER_Site": "Housing authority", "USER_Street": "2331 Albin Dr", "USER_City": "Entiat", "USER_State": "WA", "USER_Zip": 98822, "USER_Hours": null, "USER_Password_Req__Y_N_": null, "USER_Partner": "LocalTel & Chelan PUD", "USER_Field9": null }, "geometry": { "type": "Point", "coordinates": [ -120.216818, 47.673166 ] } },
{ "type": "Feature", "properties": { "OBJECTID": 192, "X": -120.66549, "Y": 47.594081, "USER_Site": "Downtown\/Leavenworth City Pool ", "USER_Street": "694 Highway 2", "USER_City": "Leavenworth", "USER_State": "WA", "USER_Zip": 98826, "USER_Hours": null, "USER_Password_Req__Y_N_": null, "USER_Partner": "LocalTel & Chelan PUD", "USER_Field9": null }, "geometry": { "type": "Point", "coordinates": [ -120.66549, 47.594081000000102 ] } },
{ "type": "Feature", "properties": { "OBJECTID": 193, "X": -120.121079, "Y": 47.879849, "USER_Site": "Downtown", "USER_Street": "157 E Wapato Way", "USER_City": "Manson", "USER_State": "WA", "USER_Zip": 98831, "USER_Hours": null, "USER_Password_Req__Y_N_": null, "USER_Partner": "LocalTel & Chelan PUD", "USER_Field9": null }, "geometry": { "type": "Point", "coordinates": [ -120.121079, 47.879849 ] } },
{ "type": "Feature", "properties": { "OBJECTID": 194, "X": -120.140042, "Y": 47.884369, "USER_Site": "Madeline", "USER_Street": "345 Madeline Rd.", "USER_City": "Manson", "USER_State": "WA", "USER_Zip": 98831, "USER_Hours": null, "USER_Password_Req__Y_N_": null, "USER_Partner": "LocalTel & Chelan PUD", "USER_Field9": null }, "geometry": { "type": "Point", "coordinates": [ -120.140042, 47.884369 ] } },
{ "type": "Feature", "properties": { "OBJECTID": 195, "X": -119.537707, "Y": 48.411996, "USER_Site": "Omak SD", "USER_Street": "619 Bartlett Ave. W", "USER_City": "Omak", "USER_State": "WA", "USER_Zip": 98841, "USER_Hours": null, "USER_Password_Req__Y_N_": null, "USER_Partner": "LocalTel & Chelan PUD", "USER_Field9": null }, "geometry": { "type": "Point", "coordinates": [ -119.537707, 48.411996 ] } },
{ "type": "Feature", "properties": { "OBJECTID": 196, "X": -119.433829, "Y": 48.699796, "USER_Site": "Tonasket School District - Elementary", "USER_Street": "35 WA-20", "USER_City": "Tonasket", "USER_State": "WA", "USER_Zip": 98855, "USER_Hours": null, "USER_Password_Req__Y_N_": null, "USER_Partner": "LocalTel & Chelan PUD", "USER_Field9": null }, "geometry": { "type": "Point", "coordinates": [ -119.433829, 48.699796 ] } },
{ "type": "Feature", "properties": { "OBJECTID": 197, "X": -120.33605, "Y": 47.343339, "USER_Site": "Beehive Grange", "USER_Street": "4593 Squilchuck Rd", "USER_City": "Wenatchee", "USER_State": "WA", "USER_Zip": 99122, "USER_Hours": null, "USER_Password_Req__Y_N_": null, "USER_Partner": "LocalTel & Chelan PUD", "USER_Field9": null }, "geometry": { "type": "Point", "coordinates": [ -120.33605, 47.3433390000001 ] } },
{ "type": "Feature", "properties": { "OBJECTID": 198, "X": -120.310156, "Y": 47.417308, "USER_Site": "Downtown", "USER_Street": "420 Methow St", "USER_City": "Wenatchee", "USER_State": "WA", "USER_Zip": 98801, "USER_Hours": null, "USER_Password_Req__Y_N_": null, "USER_Partner": "LocalTel & Chelan PUD", "USER_Field9": null }, "geometry": { "type": "Point", "coordinates": [ -120.310156, 47.417308 ] } },
{ "type": "Feature", "properties": { "OBJECTID": 199, "X": -120.202279, "Y": 47.372222, "USER_Site": "MALAGA MARKET", "USER_Street": "3821 Malaga Alcoa Hwy", "USER_City": "Malaga", "USER_State": "WA", "USER_Zip": 98828, "USER_Hours": "6am - 10pm", "USER_Password_Req__Y_N_": "509HTSP022", "USER_Partner": "LocalTel \/ Chelan County Fiber", "USER_Field9": null }, "geometry": { "type": "Point", "coordinates": [ -120.202279, 47.3722220000001 ] } },
{ "type": "Feature", "properties": { "OBJECTID": 200, "X": -120.145744, "Y": 47.897344, "USER_Site": "BLUE CABINS-MANSON SCHOOL DISTRICT", "USER_Street": "131 Chandler Rd", "USER_City": "Manson", "USER_State": "WA", "USER_Zip": 98831, "USER_Hours": "6am - 10pm", "USER_Password_Req__Y_N_": "509HTSP013 *Voucher required - Refer to Manson School District* ", "USER_Partner": "LocalTel \/ SkyFi", "USER_Field9": null }, "geometry": { "type": "Point", "coordinates": [ -120.145744, 47.897344 ] } },
{ "type": "Feature", "properties": { "OBJECTID": 201, "X": -120.1219298, "Y": 47.8808418, "USER_Site": "MANSON TRAILER PARK ", "USER_Street": "2441 E Wapato Way", "USER_City": "Manson", "USER_State": "WA", "USER_Zip": 98831, "USER_Hours": "6am - 10pm", "USER_Password_Req__Y_N_": "509HTSP014 *Voucher required - Refer to Manson School District*", "USER_Partner": "LocalTel \/ SkyFi", "USER_Field9": null }, "geometry": { "type": "Point", "coordinates": [ -120.1219298, 47.8808418 ] } },
{ "type": "Feature", "properties": { "OBJECTID": 202, "X": -120.656787, "Y": 47.483353, "USER_Site": "CSD \/ VALLEY HIGH STUDENT ", "USER_Street": "3565 Hansel Ln", "USER_City": "Peshastin", "USER_State": "WA", "USER_Zip": 98847, "USER_Hours": "6am - 10pm", "USER_Password_Req__Y_N_": "509WX12571 *Voucher required - Refer to Cascade School District*", "USER_Partner": "LocalTel \/ SkyFi", "USER_Field9": null }, "geometry": { "type": "Point", "coordinates": [ -120.656787, 47.483353000000101 ] } },
{ "type": "Feature", "properties": { "OBJECTID": 203, "X": -119.929217, "Y": 46.683911, "USER_Site": "DESERT AIRE PARK \/ WAHLUKE SCHOOL DISTRICT", "USER_Street": "215 Desert Aire Dr SW", "USER_City": "Mattawa", "USER_State": "WA", "USER_Zip": 99349, "USER_Hours": "6am - 10pm", "USER_Password_Req__Y_N_": "509HTSP016", "USER_Partner": "LocalTel WorkSpot - D. Aire \/ Grant County Fiber", "USER_Field9": null }, "geometry": { "type": "Point", "coordinates": [ -119.929217, 46.683911000000101 ] } },
{ "type": "Feature", "properties": { "OBJECTID": 204, "X": -120.012357, "Y": 47.830049, "USER_Site": "CHELAN BLUFF APARTMENTS", "USER_Street": "1135 South Bradley St", "USER_City": "Chelan", "USER_State": "WA", "USER_Zip": 98816, "USER_Hours": "6am - 10pm", "USER_Password_Req__Y_N_": "509HTSP019", "USER_Partner": "LocalTel WorkSpot Chelan Bluff \/ Chelan County Fiber", "USER_Field9": null }, "geometry": { "type": "Point", "coordinates": [ -120.012357, 47.830049 ] } },
{ "type": "Feature", "properties": { "OBJECTID": 205, "X": -120.178028, "Y": 47.365487, "USER_Site": "COLUMBIA POINTE APARTMENTS & SAGE BLUFF", "USER_Street": "217 Larkspur Lane  ", "USER_City": "Malaga", "USER_State": "WA", "USER_Zip": 98828, "USER_Hours": "6am - 10pm", "USER_Password_Req__Y_N_": "509HTSP020", "USER_Partner": "LocalTel WorkSpot Sage Bluff \/ Chelan County Fiber", "USER_Field9": null }, "geometry": { "type": "Point", "coordinates": [ -120.178028, 47.365487 ] } },
{ "type": "Feature", "properties": { "OBJECTID": 206, "X": -119.896495, "Y": 46.741311, "USER_Site": "WAHLUKE SCHOOL DISTRICT", "USER_Street": "500 Boundary Ave", "USER_City": "Mattawa", "USER_State": "WA", "USER_Zip": 99349, "USER_Hours": "6am - 10pm", "USER_Password_Req__Y_N_": "509HTSP018", "USER_Partner": "LocalTel WorkSpot Wahluke SD \/ Grant County Fiber", "USER_Field9": null }, "geometry": { "type": "Point", "coordinates": [ -119.896495, 46.741311000000103 ] } },
{ "type": "Feature", "properties": { "OBJECTID": 207, "X": -122.828159, "Y": 47.384074, "USER_Site": "Port of Allyn Dock", "USER_Street": "Drum Street", "USER_City": "Allyn", "USER_State": "WA", "USER_Zip": 98524, "USER_Hours": null, "USER_Password_Req__Y_N_": null, "USER_Partner": "Mason PUD No. 3", "USER_Field9": null }, "geometry": { "type": "Point", "coordinates": [ -122.828159, 47.384074 ] } },
{ "type": "Feature", "properties": { "OBJECTID": 208, "X": -122.845055, "Y": 47.461072, "USER_Site": "Sand Hill Ball Fields", "USER_Street": "1000 NE Sand Hill Rd", "USER_City": "Belfair", "USER_State": "WA", "USER_Zip": 98528, "USER_Hours": null, "USER_Password_Req__Y_N_": null, "USER_Partner": "Mason PUD No. 3", "USER_Field9": null }, "geometry": { "type": "Point", "coordinates": [ -122.845055, 47.461072000000101 ] } },
{ "type": "Feature", "properties": { "OBJECTID": 209, "X": -122.895385, "Y": 47.374621, "USER_Site": "Trails End Community Club \/ Water District", "USER_Street": "2411 E Trails End Dr", "USER_City": "Belfair", "USER_State": "WA", "USER_Zip": 98528, "USER_Hours": null, "USER_Password_Req__Y_N_": null, "USER_Partner": "Mason PUD No. 3", "USER_Field9": null }, "geometry": { "type": "Point", "coordinates": [ -122.895385, 47.374621 ] } },
{ "type": "Feature", "properties": { "OBJECTID": 210, "X": -122.902408, "Y": 47.395397, "USER_Site": "Trails End on Hood Canal", "USER_Street": "2 E Trails Rd", "USER_City": "Belfair", "USER_State": "WA", "USER_Zip": 98528, "USER_Hours": null, "USER_Password_Req__Y_N_": null, "USER_Partner": "Mason PUD No. 3", "USER_Field9": null }, "geometry": { "type": "Point", "coordinates": [ -122.902408, 47.395397000000102 ] } },
{ "type": "Feature", "properties": { "OBJECTID": 211, "X": -123.339283, "Y": 47.13574, "USER_Site": "Lake Arrowhead Community Club", "USER_Street": "659 W Satsop Cloquallum Rd", "USER_City": "Elma", "USER_State": "WA", "USER_Zip": 98541, "USER_Hours": null, "USER_Password_Req__Y_N_": null, "USER_Partner": "Mason PUD No. 3", "USER_Field9": null }, "geometry": { "type": "Point", "coordinates": [ -123.339283, 47.13574 ] } },
{ "type": "Feature", "properties": { "OBJECTID": 212, "X": -123.433535, "Y": 47.198795, "USER_Site": "Mary M Knight School", "USER_Street": "2987 Matlock-Brady Rd", "USER_City": "Elma", "USER_State": "WA", "USER_Zip": 98541, "USER_Hours": null, "USER_Password_Req__Y_N_": null, "USER_Partner": "Mason PUD No. 3", "USER_Field9": null }, "geometry": { "type": "Point", "coordinates": [ -123.433535, 47.198795000000104 ] } },
{ "type": "Feature", "properties": { "OBJECTID": 213, "X": -123.466231, "Y": 47.096383, "USER_Site": "Schafer State Park", "USER_Street": "1365 W Schafer Park Rd", "USER_City": "Elma", "USER_State": "WA", "USER_Zip": 98541, "USER_Hours": null, "USER_Password_Req__Y_N_": null, "USER_Partner": "Mason PUD No. 3", "USER_Field9": null }, "geometry": { "type": "Point", "coordinates": [ -123.466231, 47.096383000000102 ] } },
{ "type": "Feature", "properties": { "OBJECTID": 214, "X": -123.329238, "Y": 47.151509, "USER_Site": "Star Lake Community Club", "USER_Street": "1137 W Star Lake Dr", "USER_City": "Elma", "USER_State": "WA", "USER_Zip": 98541, "USER_Hours": null, "USER_Password_Req__Y_N_": null, "USER_Partner": "Mason PUD No. 3", "USER_Field9": null }, "geometry": { "type": "Point", "coordinates": [ -123.329238, 47.151509 ] } },
{ "type": "Feature", "properties": { "OBJECTID": 215, "X": -122.83592, "Y": 47.328449, "USER_Site": "Grapeview Fire Station (MCFD 3)", "USER_Street": "4350 Grapeview Loop Rd", "USER_City": "Grapeview", "USER_State": "WA", "USER_Zip": 98546, "USER_Hours": null, "USER_Password_Req__Y_N_": null, "USER_Partner": "Mason PUD No. 3", "USER_Field9": null }, "geometry": { "type": "Point", "coordinates": [ -122.83592, 47.328449 ] } },
{ "type": "Feature", "properties": { "OBJECTID": 216, "X": -122.921157, "Y": 47.357332, "USER_Site": "Mason Lake County Park", "USER_Street": "6011 E Mason Lake Dr W", "USER_City": "Grapeview", "USER_State": "WA", "USER_Zip": 98546, "USER_Hours": null, "USER_Password_Req__Y_N_": null, "USER_Partner": "Mason PUD No. 3", "USER_Field9": null }, "geometry": { "type": "Point", "coordinates": [ -122.921157, 47.357332 ] } },
{ "type": "Feature", "properties": { "OBJECTID": 217, "X": -123.408847, "Y": 47.239388, "USER_Site": "Matlock Grange", "USER_Street": "61 W Beeville Rd", "USER_City": "Matlock", "USER_State": "WA", "USER_Zip": 98560, "USER_Hours": null, "USER_Password_Req__Y_N_": null, "USER_Partner": "Mason PUD No. 3", "USER_Field9": null }, "geometry": { "type": "Point", "coordinates": [ -123.408847, 47.239388 ] } },
{ "type": "Feature", "properties": { "OBJECTID": 218, "X": -123.044616, "Y": 47.248674, "USER_Site": "Bayshore Preserve", "USER_Street": "3838 WA-3", "USER_City": "Shelton", "USER_State": "WA", "USER_Zip": 98584, "USER_Hours": null, "USER_Password_Req__Y_N_": null, "USER_Partner": "Mason PUD No. 3", "USER_Field9": null }, "geometry": { "type": "Point", "coordinates": [ -123.044616, 47.248674000000101 ] } },
{ "type": "Feature", "properties": { "OBJECTID": 219, "X": -123.102638, "Y": 47.213057, "USER_Site": "Downtown Shelton - Evergreen Square", "USER_Street": "300 W Railroad Ave", "USER_City": "Shelton", "USER_State": "WA", "USER_Zip": 98584, "USER_Hours": null, "USER_Password_Req__Y_N_": null, "USER_Partner": "Mason PUD No. 3", "USER_Field9": null }, "geometry": { "type": "Point", "coordinates": [ -123.102638, 47.213057 ] } },
{ "type": "Feature", "properties": { "OBJECTID": 220, "X": -123.127885, "Y": 47.243337, "USER_Site": "Island Lake Fire Station (MCFD 11)", "USER_Street": "130 E Island Lake Rd", "USER_City": "Shelton", "USER_State": "WA", "USER_Zip": 98584, "USER_Hours": null, "USER_Password_Req__Y_N_": null, "USER_Partner": "Mason PUD No. 3", "USER_Field9": null }, "geometry": { "type": "Point", "coordinates": [ -123.127885, 47.243337000000103 ] } },
{ "type": "Feature", "properties": { "OBJECTID": 221, "X": -122.930466, "Y": 47.24715, "USER_Site": "Latimer's Landing", "USER_Street": "99 E Harstine Bridge Rd", "USER_City": "Shelton", "USER_State": "WA", "USER_Zip": 98584, "USER_Hours": null, "USER_Password_Req__Y_N_": null, "USER_Partner": "Mason PUD No. 3", "USER_Field9": null }, "geometry": { "type": "Point", "coordinates": [ -122.930466, 47.24715 ] } },
{ "type": "Feature", "properties": { "OBJECTID": 222, "X": -123.003433, "Y": 47.258808, "USER_Site": "Pioneer Middle School", "USER_Street": "50 E Spencer Lake Rd", "USER_City": "Shelton", "USER_State": "WA", "USER_Zip": 98584, "USER_Hours": null, "USER_Password_Req__Y_N_": null, "USER_Partner": "Mason PUD No. 3", "USER_Field9": null }, "geometry": { "type": "Point", "coordinates": [ -123.003433, 47.258808 ] } },
{ "type": "Feature", "properties": { "OBJECTID": 223, "X": -123.121636, "Y": 47.23643, "USER_Site": "Shelton High School", "USER_Street": "3737 Shelton Springs Road", "USER_City": "Shelton", "USER_State": "WA", "USER_Zip": 98584, "USER_Hours": null, "USER_Password_Req__Y_N_": null, "USER_Partner": "Mason PUD No. 3", "USER_Field9": null }, "geometry": { "type": "Point", "coordinates": [ -123.121636, 47.23643 ] } },
{ "type": "Feature", "properties": { "OBJECTID": 224, "X": -123.02608, "Y": 47.159668, "USER_Site": "Skookum Hall", "USER_Street": "3480 SE Lynch Rd", "USER_City": "Shelton", "USER_State": "WA", "USER_Zip": 98584, "USER_Hours": null, "USER_Password_Req__Y_N_": null, "USER_Partner": "Mason PUD No. 3", "USER_Field9": null }, "geometry": { "type": "Point", "coordinates": [ -123.02608, 47.159668000000103 ] } },
{ "type": "Feature", "properties": { "OBJECTID": 225, "X": -122.865031, "Y": 47.210102, "USER_Site": "South Harstine Island Fire Station (CMFE 5-11)", "USER_Street": "2260 E Harstine Island Rd S", "USER_City": "Shelton", "USER_State": "WA", "USER_Zip": 98584, "USER_Hours": null, "USER_Password_Req__Y_N_": null, "USER_Partner": "Mason PUD No. 3", "USER_Field9": null }, "geometry": { "type": "Point", "coordinates": [ -122.865031, 47.210102 ] } },
{ "type": "Feature", "properties": { "OBJECTID": 226, "X": -123.05486, "Y": 47.199527, "USER_Site": "Southside School", "USER_Street": "161 SE Collier Rd", "USER_City": "Shelton", "USER_State": "WA", "USER_Zip": 98584, "USER_Hours": null, "USER_Password_Req__Y_N_": null, "USER_Partner": "Mason PUD No. 3", "USER_Field9": null }, "geometry": { "type": "Point", "coordinates": [ -123.05486, 47.199527 ] } },
{ "type": "Feature", "properties": { "OBJECTID": 227, "X": -123.159989, "Y": 47.333293, "USER_Site": "Hood Canal School", "USER_Street": "111 WA-106", "USER_City": "Skokomish", "USER_State": "WA", "USER_Zip": 98584, "USER_Hours": null, "USER_Password_Req__Y_N_": null, "USER_Partner": "Mason PUD No. 3", "USER_Field9": null }, "geometry": { "type": "Point", "coordinates": [ -123.159989, 47.333293 ] } },
{ "type": "Feature", "properties": { "OBJECTID": 228, "X": -122.983138, "Y": 47.432603, "USER_Site": "Collins Lake Fire Station (NMRFA)", "USER_Street": "60 NE Collins Lake Dr", "USER_City": "Tahuya", "USER_State": "WA", "USER_Zip": 98588, "USER_Hours": null, "USER_Password_Req__Y_N_": null, "USER_Partner": "Mason PUD No. 3", "USER_Field9": null }, "geometry": { "type": "Point", "coordinates": [ -122.983138, 47.432603 ] } },
{ "type": "Feature", "properties": { "OBJECTID": 229, "X": -124.054396, "Y": 46.341943, "USER_Site": "McDonalds Long Beach", "USER_Street": "100 16th St SE", "USER_City": "Long Beach", "USER_State": "WA", "USER_Zip": 98631, "USER_Hours": null, "USER_Password_Req__Y_N_": null, "USER_Partner": "McDonalds Long Beach", "USER_Field9": null }, "geometry": { "type": "Point", "coordinates": [ -124.054396, 46.3419430000001 ] } },